観測所番号,観測所名,ｶﾀｶﾅ名,緯度,経度,標高,正式名称,都道府県,市町村
11001,宗谷岬,ｿｳﾔﾐｻｷ,45.52,141.935,26,宗谷岬アメダス,北海道,稚内市
11016,稚内,ﾜｯｶﾅｲ,45.415,141.678,3,稚内地方気象台,北海道,稚内市
11046,礼文,ﾚﾌﾞﾝ,45.305,141.045,65,礼文アメダス,北海道,礼文郡礼文町
11061,声問,ｺｴﾄｲ,45.403,141.802,8,稚内航空気象観測所,北海道,稚内市
11076,浜鬼志別,ﾊﾏｵﾆｼﾍﾞﾂ,45.335,142.17,13,浜鬼志別アメダス,北海道,宗谷郡猿払村
11091,本泊,ﾓﾄﾄﾞﾏﾘ,45.242,141.187,30,利尻航空気象観測所,北海道,利尻郡利尻富士町
11121,沼川,ﾇﾏｶﾜ,45.248,141.852,23,沼川アメダス,北海道,稚内市
11151,沓形,ｸﾂｶﾞﾀ,45.178,141.138,14,沓形アメダス,北海道,利尻郡利尻町
11176,豊富,ﾄﾖﾄﾐ,45.102,141.78,14,豊富アメダス,北海道,天塩郡豊富町
11206,浜頓別,ﾊﾏﾄﾝﾍﾞﾂ,45.125,142.35,18,浜頓別アメダス,北海道,枝幸郡浜頓別町
11276,中頓別,ﾅｶﾄﾝﾍﾞﾂ,44.965,142.28,25,中頓別アメダス,北海道,枝幸郡中頓別町
11291,北見枝幸,ｷﾀﾐｴｻｼ,44.94,142.585,7,北見枝幸特別地域気象観測所,北海道,枝幸郡枝幸町
11316,歌登,ｳﾀﾉﾎﾞﾘ,44.842,142.48,14,歌登アメダス,北海道,枝幸郡枝幸町
12011,中川,ﾅｶｶﾞﾜ,44.828,142.077,22,中川アメダス,北海道,中川郡中川町
12041,音威子府,ｵﾄｲﾈｯﾌﾟ,44.727,142.265,40,音威子府アメダス,北海道,中川郡音威子府村
12066,小車,ｵｸﾞﾙﾏ,44.608,142.295,60,小車アメダス,北海道,中川郡美深町
12141,美深,ﾋﾞﾌｶ,44.48,142.342,77,美深アメダス,北海道,中川郡美深町
12181,名寄,ﾅﾖﾛ,44.37,142.457,89,名寄アメダス,北海道,名寄市
12217,西風連,ﾆｼﾌｳﾚﾝ,44.295,142.358,128,西風連アメダス,北海道,名寄市
12231,下川,ｼﾓｶﾜ,44.295,142.637,143,下川アメダス,北海道,上川郡下川町
12256,剣淵,ｹﾝﾌﾞﾁ,44.107,142.353,138,剣淵アメダス,北海道,上川郡剣淵町
12261,士別,ｼﾍﾞﾂ,44.187,142.417,135,士別アメダス,北海道,士別市
12266,朝日,ｱｻﾋ,44.118,142.595,225,朝日アメダス,北海道,士別市
12301,和寒,ﾜｯｻﾑ,44.028,142.41,150,和寒アメダス,北海道,上川郡和寒町
12386,江丹別,ｴﾀﾝﾍﾞﾂ,43.87,142.26,140,江丹別アメダス,北海道,旭川市
12396,比布,ﾋﾟｯﾌﾟ,43.87,142.47,164,比布アメダス,北海道,上川郡比布町
12411,上川,ｶﾐｶﾜ,43.847,142.753,324,上川アメダス,北海道,上川郡上川町
12442,旭川,ｱｻﾋｶﾜ,43.757,142.372,120,旭川地方気象台,北海道,旭川市
12451,東川,ﾋｶﾞｼｶﾜ,43.702,142.508,215,東川アメダス,北海道,上川郡東川町
12457,瑞穂,ﾐｽﾞﾎ,43.737,142.638,289,瑞穂アメダス,北海道,旭川市
12471,層雲峡,ｿｳｳﾝｷｮｳ,43.753,142.93,540,層雲峡アメダス,北海道,上川郡上川町
12501,東神楽,ﾋｶﾞｼｶｸﾞﾗ,43.67,142.447,211,旭川航空気象観測所,北海道,上川郡東神楽町
12512,志比内,ｼﾋﾞﾅｲ,43.643,142.582,310,志比内アメダス,北海道,上川郡東神楽町
12551,美瑛,ﾋﾞｴｲ,43.588,142.493,250,美瑛アメダス,北海道,上川郡美瑛町
12596,上富良野,ｶﾐﾌﾗﾉ,43.455,142.465,220,上富良野アメダス,北海道,空知郡上富良野町
12607,白金,ｼﾛｶﾞﾈ,43.475,142.65,658,白金アメダス,北海道,上川郡美瑛町
12626,富良野,ﾌﾗﾉ,43.333,142.4,174,富良野アメダス,北海道,富良野市
12632,麓郷,ﾛｸｺﾞｳ,43.302,142.522,315,麓郷アメダス,北海道,富良野市
12686,金山,ｶﾅﾔﾏ,43.138,142.417,284,金山アメダス,北海道,空知郡南富良野町
12691,幾寅,ｲｸﾄﾗ,43.168,142.568,350,幾寅アメダス,北海道,空知郡南富良野町
12746,占冠,ｼﾑｶｯﾌﾟ,42.978,142.395,332,占冠アメダス,北海道,勇払郡占冠村
13011,幌延,ﾎﾛﾉﾍﾞ,45.007,141.852,5,幌延アメダス,北海道,天塩郡幌延町
13061,天塩,ﾃｼｵ,44.893,141.762,9,天塩アメダス,北海道,天塩郡天塩町
13086,遠別,ｴﾝﾍﾞﾂ,44.718,141.807,7,遠別アメダス,北海道,天塩郡遠別町
13121,初山別,ｼｮｻﾝﾍﾞﾂ,44.523,141.77,27,初山別アメダス,北海道,苫前郡初山別村
13146,焼尻,ﾔｷﾞｼﾘ,44.428,141.422,38,焼尻アメダス,北海道,苫前郡羽幌町
13181,羽幌,ﾊﾎﾞﾛ,44.363,141.7,8,羽幌特別地域気象観測所,北海道,苫前郡羽幌町
13206,古丹別,ｺﾀﾝﾍﾞﾂ,44.265,141.722,15,古丹別アメダス,北海道,苫前郡苫前町
13261,達布,ﾀｯﾌﾟ,44.048,141.857,30,達布アメダス,北海道,留萌郡小平町
13277,留萌,ﾙﾓｲ,43.945,141.632,24,留萌特別地域気象観測所,北海道,留萌市
13311,増毛,ﾏｼｹ,43.848,141.51,20,増毛アメダス,北海道,増毛郡増毛町
13321,幌糠,ﾎﾛﾇｶ,43.853,141.76,20,幌糠アメダス,北海道,留萌市
14026,浜益,ﾊﾏﾏｽ,43.582,141.387,3,浜益アメダス,北海道,石狩市
14071,厚田,ｱﾂﾀ,43.397,141.437,5,厚田アメダス,北海道,石狩市
14101,新篠津,ｼﾝｼﾉﾂ,43.22,141.645,9,新篠津アメダス,北海道,石狩郡新篠津村
14116,山口,ﾔﾏｸﾞﾁ,43.148,141.222,5,山口アメダス,北海道,札幌市
14121,石狩,ｲｼｶﾘ,43.193,141.37,5,石狩アメダス,北海道,石狩市
14136,江別,ｴﾍﾞﾂ,43.11,141.602,8,江別アメダス,北海道,江別市
14157,手稲山,ﾃｲﾈﾔﾏ,43.083,141.202,568,手稲山アメダス,北海道,札幌市
14163,札幌,ｻｯﾎﾟﾛ,43.06,141.328,17,札幌管区気象台,北海道,札幌市
14191,小金湯,ｺｶﾞﾈﾕ,42.963,141.217,230,小金湯アメダス,北海道,札幌市
14206,恵庭島松,ｴﾆﾜｼﾏﾏﾂ,42.927,141.565,30,恵庭島松アメダス,北海道,恵庭市
14286,支笏湖畔,ｼｺﾂｺﾊﾝ,42.772,141.407,290,支笏湖畔アメダス,北海道,千歳市
14296,千歳,ﾁﾄｾ,42.775,141.692,22,新千歳航空測候所,北海道,千歳市
15041,朱鞠内,ｼｭﾏﾘﾅｲ,44.282,142.162,255,朱鞠内アメダス,北海道,雨竜郡幌加内町
15076,幌加内,ﾎﾛｶﾅｲ,44.01,142.16,159,幌加内アメダス,北海道,雨竜郡幌加内町
15116,石狩沼田,ｲｼｶﾘﾇﾏﾀ,43.815,141.927,63,石狩沼田アメダス,北海道,雨竜郡沼田町
15156,秩父別,ﾁｯﾌﾟﾍﾞﾂ,43.78,141.962,51,秩父別アメダス,北海道,雨竜郡秩父別町
15161,深川,ﾌｶｶﾞﾜ,43.718,142.073,55,深川アメダス,北海道,深川市
15197,雨竜,ｳﾘｭｳ,43.66,141.892,42,雨竜アメダス,北海道,雨竜郡雨竜町
15216,新城,ｼﾝｼﾞｮｳ,43.612,142.203,147,新城アメダス,北海道,芦別市
15231,空知吉野,ｿﾗﾁﾖｼﾉ,43.595,141.732,100,空知吉野アメダス,北海道,樺戸郡新十津川町
15241,滝川,ﾀｷｶﾜ,43.57,141.938,50,滝川アメダス,北海道,滝川市
15247,赤平,ｱｶﾋﾞﾗ,43.553,142.067,120,赤平アメダス,北海道,赤平市
15251,芦別,ｱｼﾍﾞﾂ,43.52,142.19,91,芦別アメダス,北海道,芦別市
15276,浦臼,ｳﾗｳｽ,43.428,141.808,25,浦臼アメダス,北海道,樺戸郡浦臼町
15311,月形,ﾂｷｶﾞﾀ,43.33,141.617,50,月形アメダス,北海道,樺戸郡月形町
15321,美唄,ﾋﾞﾊﾞｲ,43.363,141.827,16,美唄アメダス,北海道,美唄市
15356,岩見沢,ｲﾜﾐｻﾞﾜ,43.212,141.785,42,岩見沢特別地域気象観測所,北海道,岩見沢市
15391,栗沢,ｸﾘｻﾜ,43.122,141.745,20,栗沢アメダス,北海道,岩見沢市
15431,長沼,ﾅｶﾞﾇﾏ,43.012,141.693,13,長沼アメダス,北海道,夕張郡長沼町
15442,夕張,ﾕｳﾊﾞﾘ,43.038,141.957,293,夕張アメダス,北海道,夕張市
15451,鹿島,ｶｼﾏ,43.08,142.1,310,鹿島アメダス,北海道,夕張市
15491,沼の沢,ﾇﾏﾉｻﾜ,42.96,142.02,161,沼の沢アメダス,北海道,夕張市
16026,美国,ﾋﾞｸﾆ,43.272,140.563,75,美国アメダス,北海道,積丹郡積丹町
16061,神恵内,ｶﾓｴﾅｲ,43.145,140.423,50,神恵内アメダス,北海道,古宇郡神恵内村
16076,余市,ﾖｲﾁ,43.182,140.758,20,余市アメダス,北海道,余市郡余市町
16091,小樽,ｵﾀﾙ,43.182,141.015,25,小樽特別地域気象観測所,北海道,小樽市
16126,赤井川,ｱｶｲｶﾞﾜ,43.083,140.82,148,赤井川アメダス,北海道,余市郡赤井川村
16156,共和,ｷｮｳﾜ,42.98,140.603,15,共和アメダス,北海道,岩内郡共和町
16206,蘭越,ﾗﾝｺｼ,42.81,140.542,39,蘭越アメダス,北海道,磯谷郡蘭越町
16217,倶知安,ｸｯﾁｬﾝ,42.9,140.757,176,倶知安特別地域気象観測所,北海道,虻田郡倶知安町
16252,寿都,ｽｯﾂ,42.795,140.223,33,寿都特別地域気象観測所,北海道,寿都郡寿都町
16272,ニセコ,ﾆｾｺ,42.778,140.667,113,ニセコアメダス,北海道,虻田郡ニセコ町
16281,真狩,ﾏｯｶﾘ,42.775,140.88,440,真狩アメダス,北海道,虻田郡真狩村
16286,喜茂別,ｷﾓﾍﾞﾂ,42.793,140.948,264,喜茂別アメダス,北海道,虻田郡喜茂別町
16321,黒松内,ｸﾛﾏﾂﾅｲ,42.663,140.31,27,黒松内アメダス,北海道,寿都郡黒松内町
17036,雄武,ｵｳﾑ,44.58,142.963,14,雄武特別地域気象観測所,北海道,紋別郡雄武町
17076,興部,ｵｺｯﾍﾟ,44.47,143.108,8,興部アメダス,北海道,紋別郡興部町
17091,西興部,ﾆｼｵｺｯﾍﾟ,44.332,142.935,120,西興部アメダス,北海道,紋別郡西興部村
17112,紋別,ﾓﾝﾍﾞﾂ,44.345,143.355,16,紋別特別地域気象観測所,北海道,紋別市
17116,紋別小向,ﾓﾝﾍﾞﾂｺﾑｶｲ,44.303,143.403,18,紋別航空気象観測所,北海道,紋別市
17166,湧別,ﾕｳﾍﾞﾂ,44.213,143.618,5,湧別アメダス,北海道,紋別郡湧別町
17196,滝上,ﾀｷﾉｳｴ,44.177,143.062,165,滝上アメダス,北海道,紋別郡滝上町
17211,上藻別,ｶﾐﾓﾍﾞﾂ,44.187,143.335,94,上藻別アメダス,北海道,紋別市
17246,常呂,ﾄｺﾛ,44.115,144.037,3,常呂アメダス,北海道,北見市
17306,遠軽,ｴﾝｶﾞﾙ,44.053,143.54,80,遠軽アメダス,北海道,紋別郡遠軽町
17316,佐呂間,ｻﾛﾏ,44.018,143.76,54,佐呂間アメダス,北海道,常呂郡佐呂間町
17341,網走,ｱﾊﾞｼﾘ,44.017,144.278,38,網走地方気象台,北海道,網走市
17351,宇登呂,ｳﾄﾛ,44.052,144.982,144,宇登呂アメダス,北海道,斜里郡斜里町
17386,丸瀬布,ﾏﾙｾｯﾌﾟ,43.952,143.328,242,丸瀬布アメダス,北海道,紋別郡遠軽町
17482,白滝,ｼﾗﾀｷ,43.865,143.153,475,白滝アメダス,北海道,紋別郡遠軽町
17501,生田原,ｲｸﾀﾊﾗ,43.917,143.532,199,生田原アメダス,北海道,紋別郡遠軽町
17512,仁頃山,ﾆｺﾛﾔﾏ,43.86,143.747,261,仁頃山アメダス,北海道,北見市
17521,北見,ｷﾀﾐ,43.777,143.842,104,北見アメダス,北海道,北見市
17531,女満別,ﾒﾏﾝﾍﾞﾂ,43.88,144.163,33,女満別航空気象観測所,北海道,網走郡大空町
17541,東藻琴,ﾋｶﾞｼﾓｺﾄ,43.84,144.285,58,東藻琴アメダス,北海道,網走郡大空町
17546,小清水,ｺｼﾐｽﾞ,43.842,144.485,52,小清水アメダス,北海道,斜里郡小清水町
17561,斜里,ｼｬﾘ,43.885,144.7,15,斜里アメダス,北海道,斜里郡斜里町
17596,留辺蘂,ﾙﾍﾞｼﾍﾞ,43.742,143.45,325,留辺蘂アメダス,北海道,北見市
17607,境野,ｻｶｲﾉ,43.707,143.643,184,境野アメダス,北海道,常呂郡置戸町
17631,美幌,ﾋﾞﾎﾛ,43.77,144.172,60,美幌アメダス,北海道,網走郡美幌町
17642,山園,ﾔﾏｿﾞﾉ,43.743,144.337,361,山園アメダス,北海道,網走郡大空町
17686,置戸常元,ｵｹﾄﾂﾈﾓﾄ,43.62,143.44,368,置戸常元アメダス,北海道,常呂郡置戸町
17717,津別,ﾂﾍﾞﾂ,43.702,144.033,100,津別アメダス,北海道,網走郡津別町
17776,津別二又,ﾂﾍﾞﾂﾌﾀﾏﾀ,43.583,143.865,210,津別二又アメダス,北海道,網走郡津別町
18038,羅臼,ﾗｳｽ,44.023,145.187,15,羅臼アメダス,北海道,目梨郡羅臼町
18091,糸櫛別,ｲﾄｸｼﾍﾞﾂ,43.722,144.988,115,糸櫛別アメダス,北海道,標津郡標津町
18136,標津,ｼﾍﾞﾂ,43.662,145.132,3,標津アメダス,北海道,標津郡標津町
18161,上標津,ｶﾐｼﾍﾞﾂ,43.52,144.747,160,上標津アメダス,北海道,標津郡中標津町
18171,中標津,ﾅｶｼﾍﾞﾂ,43.543,144.978,50,中標津アメダス,北海道,標津郡中標津町
18174,根室中標津,ﾈﾑﾛﾅｶｼﾍﾞﾂ,43.577,144.96,65,中標津航空気象観測所,北海道,標津郡中標津町
18256,別海,ﾍﾞﾂｶｲ,43.382,145.118,23,別海アメダス,北海道,野付郡別海町
18273,根室,ﾈﾑﾛ,43.33,145.585,25,根室特別地域気象観測所,北海道,根室市
18281,納沙布,ﾉｻｯﾌﾟ,43.393,145.758,12,納沙布アメダス,北海道,根室市
18311,厚床,ｱｯﾄｺ,43.222,145.227,41,厚床アメダス,北海道,根室市
19021,川湯,ｶﾜﾕ,43.617,144.457,158,川湯アメダス,北海道,川上郡弟子屈町
19051,弟子屈,ﾃｼｶｶﾞ,43.51,144.467,170,弟子屈アメダス,北海道,川上郡弟子屈町
19076,阿寒湖畔,ｱｶﾝｺﾊﾝ,43.437,144.083,426,阿寒湖畔アメダス,北海道,釧路市
19151,標茶,ｼﾍﾞﾁｬ,43.292,144.587,20,標茶アメダス,北海道,川上郡標茶町
19191,鶴居,ﾂﾙｲ,43.232,144.325,38,鶴居アメダス,北海道,阿寒郡鶴居村
19261,中徹別,ﾅｶﾃｼﾍﾞﾂ,43.198,144.142,80,中徹別アメダス,北海道,釧路市
19281,塘路,ﾄｳﾛ,43.148,144.497,25,塘路アメダス,北海道,川上郡標茶町
19301,茶内原野,ﾁｬﾅｲｹﾞﾝﾔ,43.173,144.967,70,茶内原野アメダス,北海道,厚岸郡浜中町
19311,榊町,ｻｶｷﾏﾁ,43.12,145.11,2,榊町アメダス,北海道,厚岸郡浜中町
19346,阿寒,ｱｶﾝ,43.113,144.123,40,阿寒アメダス,北海道,釧路市
19347,鶴丘,ﾂﾙｵｶ,43.04,144.192,95,釧路航空気象観測所,北海道,釧路市
19376,太田,ｵｵﾀ,43.09,144.778,85,太田アメダス,北海道,厚岸郡厚岸町
19406,二俣,ﾌﾀﾏﾀ,42.972,143.875,45,二俣アメダス,北海道,釧路市
19416,白糠,ｼﾗﾇｶ,42.97,144.062,9,白糠アメダス,北海道,白糠郡白糠町
19432,釧路,ｸｼﾛ,42.985,144.377,5,釧路地方気象台,北海道,釧路市
19451,知方学,ﾁｯﾎﾟﾏﾅｲ,42.938,144.735,149,知方学アメダス,北海道,釧路郡釧路町
20047,三股,ﾐﾂﾏﾀ,43.51,143.148,660,三股アメダス,北海道,河東郡上士幌町
20071,小利別,ｼｮｳﾄｼﾍﾞﾂ,43.588,143.68,313,小利別アメダス,北海道,足寄郡陸別町
20146,陸別,ﾘｸﾍﾞﾂ,43.472,143.753,210,陸別アメダス,北海道,足寄郡陸別町
20186,ぬかびら源泉郷,ﾇｶﾋﾞﾗｹﾞﾝｾﾝｷｮｳ,43.367,143.192,540,ぬかびら源泉郷アメダス,北海道,河東郡上士幌町
20202,柏倉,ｶｼﾜｸﾗ,43.362,143.458,378,柏倉アメダス,北海道,足寄郡足寄町
20222,上螺湾,ｶﾐﾗﾜﾝ,43.318,143.802,232,上螺湾アメダス,北海道,足寄郡足寄町
20266,上士幌,ｶﾐｼﾎﾛ,43.242,143.295,287,上士幌アメダス,北海道,河東郡上士幌町
20276,足寄,ｱｼｮﾛ,43.243,143.553,90,足寄アメダス,北海道,足寄郡足寄町
20331,押帯,ｵｼｮｯﾌﾟ,43.115,143.443,104,押帯アメダス,北海道,中川郡本別町
20341,本別,ﾎﾝﾍﾞﾂ,43.132,143.6,67,本別アメダス,北海道,中川郡本別町
20356,新得,ｼﾝﾄｸ,43.077,142.84,178,新得アメダス,北海道,上川郡新得町
20361,鹿追,ｼｶｵｲ,43.103,142.995,206,鹿追アメダス,北海道,河東郡鹿追町
20371,駒場,ｺﾏﾊﾞ,43.05,143.183,112,駒場アメダス,北海道,河東郡音更町
20421,芽室,ﾒﾑﾛ,42.9,143.043,90,芽室アメダス,北海道,河西郡芽室町
20432,帯広,ｵﾋﾞﾋﾛ,42.922,143.212,38,帯広測候所,北海道,帯広市
20441,池田,ｲｹﾀﾞ,42.92,143.458,42,池田アメダス,北海道,中川郡池田町
20451,留真,ﾙｼﾝ,42.917,143.662,40,留真アメダス,北海道,十勝郡浦幌町
20506,浦幌,ｳﾗﾎﾛ,42.808,143.657,20,浦幌アメダス,北海道,十勝郡浦幌町
20551,帯広泉,ｵﾋﾞﾋﾛｲｽﾞﾐ,42.733,143.217,149,帯広航空気象観測所,北海道,帯広市
20556,糠内,ﾇｶﾅｲ,42.787,143.328,70,糠内アメダス,北海道,中川郡幕別町
20601,上札内,ｶﾐｻﾂﾅｲ,42.642,143.097,251,上札内アメダス,北海道,河西郡中札内村
20606,更別,ｻﾗﾍﾞﾂ,42.652,143.195,185,更別アメダス,北海道,河西郡更別村
20631,大津,ｵｵﾂ,42.687,143.647,4,大津アメダス,北海道,中川郡豊頃町
20696,大樹,ﾀｲｷ,42.5,143.273,87,大樹アメダス,北海道,広尾郡大樹町
20751,広尾,ﾋﾛｵ,42.293,143.317,32,広尾特別地域気象観測所,北海道,広尾郡広尾町
21031,安平,ｱﾋﾞﾗ,42.815,141.828,33,安平アメダス,北海道,勇払郡安平町
21111,厚真,ｱﾂﾏ,42.73,141.888,20,厚真アメダス,北海道,勇払郡厚真町
21126,穂別,ﾎﾍﾞﾂ,42.762,142.143,56,穂別アメダス,北海道,勇払郡むかわ町
21161,大滝,ｵｵﾀｷ,42.67,141.078,390,大滝アメダス,北海道,伊達市
21171,森野,ﾓﾘﾉ,42.63,141.247,170,森野アメダス,北海道,白老郡白老町
21187,苫小牧,ﾄﾏｺﾏｲ,42.623,141.547,6,苫小牧特別地域気象観測所,北海道,苫小牧市
21226,大岸,ｵｵｷｼ,42.59,140.643,4,大岸アメダス,北海道,虻田郡豊浦町
21237,洞爺湖温泉,ﾄｳﾔｺｵﾝｾﾝ,42.565,140.807,85,洞爺湖温泉アメダス,北海道,虻田郡洞爺湖町
21251,カルルス,ｶﾙﾙｽ,42.517,141.107,300,カルルスアメダス,北海道,登別市
21261,白老,ｼﾗｵｲ,42.543,141.352,6,白老アメダス,北海道,白老郡白老町
21276,鵡川,ﾑｶﾜ,42.59,141.933,10,鵡川アメダス,北海道,勇払郡むかわ町
21297,伊達,ﾀﾞﾃ,42.475,140.848,3,伊達アメダス,北海道,伊達市
21312,登別,ﾉﾎﾞﾘﾍﾞﾂ,42.458,141.118,197,登別アメダス,北海道,登別市
21323,室蘭,ﾑﾛﾗﾝ,42.312,140.975,40,室蘭地方気象台,北海道,室蘭市
22036,日高,ﾋﾀﾞｶ,42.877,142.442,280,日高アメダス,北海道,沙流郡日高町
22072,仁世宇,ﾆｾｳ,42.772,142.358,150,仁世宇アメダス,北海道,沙流郡平取町
22106,旭,ｱｻﾋ,42.628,142.393,245,旭アメダス,北海道,沙流郡平取町
22141,日高門別,ﾋﾀﾞｶﾓﾝﾍﾞﾂ,42.497,142.053,47,日高門別アメダス,北海道,沙流郡日高町
22156,新和,ｼﾝﾜ,42.543,142.333,60,新和アメダス,北海道,新冠郡新冠町
22206,笹山,ｻｻﾔﾏ,42.433,142.482,110,笹山アメダス,北海道,日高郡新ひだか町
22241,静内,ｼｽﾞﾅｲ,42.343,142.362,10,静内アメダス,北海道,日高郡新ひだか町
22291,三石,ﾐﾂｲｼ,42.245,142.662,10,三石アメダス,北海道,日高郡新ひだか町
22306,中杵臼,ﾅｶｷﾈｳｽ,42.223,142.948,98,中杵臼アメダス,北海道,浦河郡浦河町
22327,浦河,ｳﾗｶﾜ,42.162,142.777,37,浦河特別地域気象観測所,北海道,浦河郡浦河町
22356,目黒,ﾒｸﾞﾛ,42.128,143.312,7,目黒アメダス,北海道,幌泉郡えりも町
22366,幌満,ﾎﾛﾏﾝ,42.077,143.035,0,幌満アメダス,北海道,様似郡様似町
22391,えりも岬,ｴﾘﾓﾐｻｷ,41.925,143.243,63,えりも岬アメダス,北海道,幌泉郡えりも町
23031,長万部,ｵｼｬﾏﾝﾍﾞ,42.517,140.373,6,長万部アメダス,北海道,山越郡長万部町
23086,八雲,ﾔｸﾓ,42.252,140.272,8,八雲アメダス,北海道,二海郡八雲町
23166,森,ﾓﾘ,42.067,140.588,125,森アメダス,北海道,茅部郡森町
23191,大沼,ｵｵﾇﾏ,41.977,140.715,165,大沼アメダス,北海道,亀田郡七飯町
23206,川汲,ｶｯｸﾐ,41.905,140.97,25,川汲アメダス,北海道,函館市
23226,北斗,ﾎｸﾄ,41.887,140.653,25,北斗アメダス,北海道,北斗市
23232,函館,ﾊｺﾀﾞﾃ,41.817,140.753,35,函館地方気象台,北海道,函館市
23281,高松,ﾀｶﾏﾂ,41.77,140.822,34,函館航空気象観測所,北海道,函館市
23291,戸井泊,ﾄｲﾄﾏﾘ,41.717,141.003,20,戸井泊アメダス,北海道,函館市
23321,知内,ｼﾘｳﾁ,41.598,140.375,24,知内アメダス,北海道,上磯郡知内町
23326,木古内,ｷｺﾅｲ,41.68,140.437,10,木古内アメダス,北海道,上磯郡木古内町
23356,千軒,ｾﾝｹﾞﾝ,41.558,140.272,100,千軒アメダス,北海道,松前郡福島町
23376,松前,ﾏﾂﾏｴ,41.423,140.087,30,松前アメダス,北海道,松前郡松前町
24041,せたな,ｾﾀﾅ,42.45,139.852,10,せたなアメダス,北海道,久遠郡せたな町
24051,今金,ｲﾏｶﾈ,42.428,140.008,19,今金アメダス,北海道,瀬棚郡今金町
24101,奥尻,ｵｸｼﾘ,42.248,139.557,5,奥尻アメダス,北海道,奥尻郡奥尻町
24141,熊石,ｸﾏｲｼ,42.128,139.985,12,熊石アメダス,北海道,二海郡八雲町
24156,米岡,ﾖﾈｵｶ,42.072,139.432,49,奥尻航空気象観測所,北海道,奥尻郡奥尻町
24166,潮見,ｼｵﾐ,42.038,140.088,50,潮見アメダス,北海道,爾志郡乙部町
24201,鶉,ｳｽﾞﾗ,41.93,140.312,53,鶉アメダス,北海道,檜山郡厚沢部町
24217,江差,ｴｻｼ,41.867,140.123,4,江差特別地域気象観測所,北海道,檜山郡江差町
24236,石崎,ｲｼｻﾞｷ,41.7,140.028,5,石崎アメダス,北海道,檜山郡上ノ国町
31001,大間,ｵｵﾏ,41.527,140.912,14,大間アメダス,青森県,下北郡大間町
31036,湯野川,ﾕﾉｶﾜ,41.313,140.957,162,湯野川アメダス,青森県,むつ市
31111,むつ,ﾑﾂ,41.283,141.21,3,むつ特別地域気象観測所,青森県,むつ市
31121,小田野沢,ｵﾀﾞﾉｻﾜ,41.235,141.397,6,小田野沢アメダス,青森県,下北郡東通村
31136,今別,ｲﾏﾍﾞﾂ,41.18,140.482,30,今別アメダス,青森県,東津軽郡今別町
31156,脇野沢,ﾜｷﾉｻﾜ,41.145,140.822,15,脇野沢アメダス,青森県,むつ市
31186,市浦,ｼｳﾗ,41.057,140.347,20,市浦アメダス,青森県,五所川原市
31201,蟹田,ｶﾆﾀ,41.045,140.633,5,蟹田アメダス,青森県,東津軽郡外ヶ浜町
31296,五所川原,ｺﾞｼｮｶﾞﾜﾗ,40.808,140.458,9,五所川原アメダス,青森県,五所川原市
31312,青森,ｱｵﾓﾘ,40.822,140.768,3,青森地方気象台,青森県,青森市
31321,大和山,ﾔﾏﾄﾔﾏ,40.848,140.985,137,大和山アメダス,青森県,東津軽郡平内町
31332,野辺地,ﾉﾍｼﾞ,40.885,141.16,14,野辺地アメダス,青森県,上北郡野辺地町
31336,六ケ所,ﾛｯｶｼｮ,40.885,141.272,80,六ケ所アメダス,青森県,上北郡六ヶ所村
31366,鰺ケ沢,ｱｼﾞｶﾞｻﾜ,40.777,140.205,40,鰺ケ沢アメダス,青森県,西津軽郡鰺ヶ沢町
31386,青森大谷,ｱｵﾓﾘｵｵﾀﾆ,40.733,140.688,198,青森航空気象観測所,青森県,青森市
31411,七戸,ｼﾁﾉﾍ,40.708,141.128,57,七戸アメダス,青森県,上北郡七戸町
31436,深浦,ﾌｶｳﾗ,40.645,139.932,66,深浦特別地域気象観測所,青森県,西津軽郡深浦町
31451,岳,ﾀﾞｹ,40.628,140.263,438,岳アメダス,青森県,弘前市
31461,弘前,ﾋﾛｻｷ,40.612,140.455,30,弘前アメダス,青森県,弘前市
31466,黒石,ｸﾛｲｼ,40.667,140.585,30,黒石アメダス,青森県,黒石市
31482,酸ケ湯,ｽｶﾕ,40.648,140.848,890,酸ケ湯アメダス,青森県,青森市
31506,三沢,ﾐｻﾜ,40.675,141.375,39,三沢アメダス,青森県,三沢市
31551,大鰐,ｵｵﾜﾆ,40.53,140.555,63,大鰐アメダス,青森県,南津軽郡大鰐町
31562,温川,ﾇﾙｶﾜ,40.515,140.783,404,温川アメダス,青森県,平川市
31586,十和田,ﾄﾜﾀﾞ,40.607,141.233,55,十和田アメダス,青森県,十和田市
31602,八戸,ﾊﾁﾉﾍ,40.527,141.522,27,八戸特別地域気象観測所,青森県,八戸市
31646,碇ケ関,ｲｶﾘｶﾞｾｷ,40.482,140.62,135,碇ケ関アメダス,青森県,平川市
31662,休屋,ﾔｽﾐﾔ,40.427,140.898,414,休屋アメダス,青森県,十和田市
31671,戸来,ﾍﾗｲ,40.468,141.177,125,戸来アメダス,青森県,三戸郡新郷村
31721,三戸,ｻﾝﾉﾍ,40.383,141.257,60,三戸アメダス,青森県,三戸郡三戸町
32056,八森,ﾊﾁﾓﾘ,40.413,139.948,34,八森アメダス,秋田県,山本郡八峰町
32071,藤里,ﾌｼﾞｻﾄ,40.32,140.293,68,藤里アメダス,秋田県,山本郡藤里町
32091,陣場,ｼﾞﾝﾊﾞ,40.415,140.61,218,陣場アメダス,秋田県,大館市
32096,藤原,ﾌｼﾞﾜﾗ,40.353,140.78,280,藤原アメダス,秋田県,鹿角郡小坂町
32111,能代,ﾉｼﾛ,40.198,140.032,6,能代アメダス,秋田県,能代市
32126,鷹巣,ﾀｶﾉｽ,40.227,140.372,29,鷹巣アメダス,秋田県,北秋田市
32136,大館,ｵｵﾀﾞﾃ,40.252,140.505,49,大館アメダス,秋田県,大館市
32146,鹿角,ｶﾂﾞﾉ,40.215,140.787,123,鹿角アメダス,秋田県,鹿角市
32181,脇神,ﾜｷｶﾞﾐ,40.192,140.372,84,大館能代航空気象観測所,秋田県,北秋田市
32206,湯瀬,ﾕｾﾞ,40.12,140.84,214,湯瀬アメダス,秋田県,鹿角市
32266,八幡平,ﾊﾁﾏﾝﾀｲ,40.013,140.802,578,八幡平アメダス,秋田県,鹿角市
32276,男鹿真山,ｵｶﾞｼﾝｻﾞﾝ,39.938,139.782,84,男鹿真山アメダス,秋田県,男鹿市
32286,男鹿,ｵｶﾞ,39.912,139.9,20,男鹿アメダス,秋田県,男鹿市
32287,大潟,ｵｵｶﾞﾀ,40,139.95,-3,大潟アメダス,秋田県,南秋田郡大潟村
32296,五城目,ｺﾞｼﾞｮｳﾒ,39.938,140.115,6,五城目アメダス,秋田県,南秋田郡五城目町
32311,阿仁合,ｱﾆｱｲ,39.993,140.403,120,阿仁合アメダス,秋田県,北秋田市
32312,比立内,ﾋﾀﾁﾅｲ,39.903,140.45,210,比立内アメダス,秋田県,北秋田市
32376,桧木内,ﾋﾉｷﾅｲ,39.812,140.585,255,桧木内アメダス,秋田県,仙北市
32402,秋田,ｱｷﾀ,39.717,140.098,6,秋田地方気象台,秋田県,秋田市
32407,岩見三内,ｲﾜﾐｻﾝﾅｲ,39.707,140.287,41,岩見三内アメダス,秋田県,秋田市
32408,仁別,ﾆﾍﾞﾂ,39.8,140.217,179,仁別アメダス,秋田県,秋田市
32426,鎧畑,ﾖﾛｲﾊﾞﾀ,39.775,140.665,281,鎧畑アメダス,秋田県,仙北市
32431,田沢湖高原,ﾀｻﾞﾜｺｺｳｹﾞﾝ,39.778,140.762,652,田沢湖高原アメダス,秋田県,仙北市
32451,雄和,ﾕｳﾜ,39.615,140.218,93,秋田航空気象観測所,秋田県,秋田市
32466,角館,ｶｸﾉﾀﾞﾃ,39.603,140.557,56,角館アメダス,秋田県,仙北市
32476,田沢湖,ﾀｻﾞﾜｺ,39.698,140.732,230,田沢湖アメダス,秋田県,仙北市
32496,大正寺,ﾀﾞｲｼｮｳｼﾞ,39.527,140.233,20,大正寺アメダス,秋田県,秋田市
32551,大曲,ｵｵﾏｶﾞﾘ,39.49,140.495,30,大曲アメダス,秋田県,大仙市
32571,本荘,ﾎﾝｼﾞｮｳ,39.36,140.055,11,本荘アメダス,秋田県,由利本荘市
32581,東由利,ﾋｶﾞｼﾕﾘ,39.305,140.288,117,東由利アメダス,秋田県,由利本荘市
32596,横手,ﾖｺﾃ,39.32,140.555,59,横手アメダス,秋田県,横手市
32616,にかほ,ﾆｶﾎ,39.255,139.913,7,にかほアメダス,秋田県,にかほ市
32626,矢島,ﾔｼﾏ,39.235,140.137,46,矢島アメダス,秋田県,由利本荘市
32681,笹子,ｼﾞﾈｺﾞ,39.102,140.287,223,笹子アメダス,秋田県,由利本荘市
32691,湯沢,ﾕｻﾞﾜ,39.187,140.463,74,湯沢アメダス,秋田県,湯沢市
32701,東成瀬,ﾋｶﾞｼﾅﾙｾ,39.178,140.648,191,東成瀬アメダス,秋田県,雄勝郡東成瀬村
32771,湯の岱,ﾕﾉﾀｲ,38.96,140.528,335,湯の岱アメダス,秋田県,湯沢市
33006,種市,ﾀﾈｲﾁ,40.403,141.7,70,種市アメダス,岩手県,九戸郡洋野町種市
33026,軽米,ｶﾙﾏｲ,40.325,141.467,148,軽米アメダス,岩手県,九戸郡軽米町
33071,二戸,ﾆﾉﾍ,40.298,141.298,87,二戸アメダス,岩手県,二戸市
33086,大野,ｵｵﾉ,40.282,141.667,200,大野アメダス,岩手県,九戸郡洋野町
33136,山形,ﾔﾏｶﾞﾀ,40.148,141.572,290,山形アメダス,岩手県,久慈市
33146,久慈,ｸｼﾞ,40.168,141.748,13,久慈アメダス,岩手県,久慈市
33166,荒屋,ｱﾗﾔ,40.103,141.05,290,荒屋アメダス,岩手県,八幡平市
33176,奥中山,ｵｸﾅｶﾔﾏ,40.06,141.225,430,奥中山アメダス,岩手県,二戸郡一戸町
33186,葛巻,ｸｽﾞﾏｷ,40.04,141.457,418,葛巻アメダス,岩手県,岩手郡葛巻町
33201,下戸鎖,ｼﾓﾄｸｻﾘ,40.085,141.712,232,下戸鎖アメダス,岩手県,久慈市
33206,普代,ﾌﾀﾞｲ,40.003,141.883,8,普代アメダス,岩手県,下閉伊郡普代村
33226,岩手松尾,ｲﾜﾃﾏﾂｵ,39.952,141.065,275,岩手松尾アメダス,岩手県,八幡平市
33231,一方井,ｲｯｶﾀｲ,39.973,141.167,285,一方井アメダス,岩手県,岩手郡岩手町
33296,好摩,ｺｳﾏ,39.868,141.167,205,好摩アメダス,岩手県,盛岡市
33326,岩泉,ｲﾜｲｽﾞﾐ,39.847,141.795,105,岩泉アメダス,岩手県,下閉伊郡岩泉町
33336,小本,ｵﾓﾄ,39.847,141.963,3,小本アメダス,岩手県,下閉伊郡岩泉町
33351,葛根田,ｶｯｺﾝﾀﾞ,39.777,140.945,350,葛根田アメダス,岩手県,岩手郡雫石町
33361,滝沢,ﾀｷｻﾞﾜ,39.78,141.097,210,滝沢アメダス,岩手県,滝沢市
33371,薮川,ﾔﾌﾞｶﾜ,39.783,141.328,680,薮川アメダス,岩手県,盛岡市
33421,雫石,ｼｽﾞｸｲｼ,39.697,140.975,195,雫石アメダス,岩手県,岩手郡雫石町
33431,盛岡,ﾓﾘｵｶ,39.698,141.165,155,盛岡地方気象台,岩手県,盛岡市
33441,区界,ｸｻﾞｶｲ,39.65,141.353,734,区界アメダス,岩手県,宮古市
33472,宮古,ﾐﾔｺ,39.647,141.965,43,宮古特別地域気象観測所,岩手県,宮古市
33486,沢内,ｻﾜｳﾁ,39.548,140.843,407,沢内アメダス,岩手県,和賀郡西和賀町
33501,紫波,ｼﾜ,39.547,141.127,125,紫波アメダス,岩手県,紫波郡紫波町
33526,川井,ｶﾜｲ,39.598,141.682,192,川井アメダス,岩手県,宮古市
33566,豊沢,ﾄﾖｻﾜ,39.48,140.968,300,豊沢アメダス,岩手県,花巻市
33576,花巻,ﾊﾅﾏｷ,39.428,141.135,90,花巻航空気象観測所,岩手県,花巻市
33581,大迫,ｵｵﾊｻﾏ,39.47,141.278,150,大迫アメダス,岩手県,花巻市
33596,附馬牛,ﾂｷﾓｳｼ,39.457,141.507,440,附馬牛アメダス,岩手県,遠野市
33611,大槌,ｵｵﾂﾁ,39.438,141.807,120,大槌アメダス,岩手県,上閉伊郡大槌町
33616,山田,ﾔﾏﾀﾞ,39.45,141.957,24,山田アメダス,岩手県,下閉伊郡山田町
33631,湯田,ﾕﾀﾞ,39.31,140.777,250,湯田アメダス,岩手県,和賀郡西和賀町
33671,遠野,ﾄｵﾉ,39.338,141.543,275,遠野アメダス,岩手県,遠野市
33711,金ケ崎,ｶﾈｶﾞｻｷ,39.225,141.015,170,金ケ崎アメダス,岩手県,胆沢郡金ケ崎町
33716,北上,ｷﾀｶﾐ,39.288,141.11,61,北上アメダス,岩手県,北上市
33726,米里,ﾖﾈｻﾄ,39.233,141.31,170,米里アメダス,岩手県,奥州市
33751,釜石,ｶﾏｲｼ,39.27,141.878,5,釜石アメダス,岩手県,釜石市
33776,若柳,ﾜｶﾔﾅｷﾞ,39.14,141.063,97,若柳アメダス,岩手県,奥州市
33781,江刺,ｴｻｼ,39.183,141.162,42,江刺アメダス,岩手県,奥州市
33801,住田,ｽﾐﾀ,39.142,141.573,80,住田アメダス,岩手県,気仙郡住田町
33831,祭畤,ﾏﾂﾙﾍﾞ,39.012,140.865,350,祭畤アメダス,岩手県,一関市
33841,衣川,ｺﾛﾓｶﾞﾜ,39.05,141.045,75,衣川アメダス,岩手県,奥州市
33856,大東,ﾀﾞｲﾄｳ,39.038,141.297,140,大東アメダス,岩手県,一関市
33877,大船渡,ｵｵﾌﾅﾄ,39.063,141.713,37,大船渡特別地域気象観測所,岩手県,大船渡市
33911,一関,ｲﾁﾉｾｷ,38.933,141.125,32,一関アメダス,岩手県,一関市
33921,千厩,ｾﾝﾏﾔ,38.922,141.33,120,千厩アメダス,岩手県,一関市
34012,駒ノ湯,ｺﾏﾉﾕ,38.913,140.828,532,駒ノ湯アメダス,宮城県,栗原市
34026,気仙沼,ｹｾﾝﾇﾏ,38.907,141.557,62,気仙沼アメダス,宮城県,気仙沼市
34056,鴬沢,ｳｸﾞｲｽｻﾞﾜ,38.805,140.948,33,鴬沢アメダス,宮城県,栗原市
34096,川渡,ｶﾜﾀﾋﾞ,38.743,140.76,170,川渡アメダス,宮城県,大崎市
34111,築館,ﾂｷﾀﾞﾃ,38.735,141.005,25,築館アメダス,宮城県,栗原市
34171,米山,ﾖﾈﾔﾏ,38.625,141.187,4,米山アメダス,宮城県,登米市
34186,志津川,ｼﾂﾞｶﾞﾜ,38.682,141.448,39,志津川アメダス,宮城県,本吉郡南三陸町
34206,加美,ｶﾐ,38.572,140.727,195,加美アメダス,宮城県,加美郡加美町
34216,古川,ﾌﾙｶﾜ,38.598,140.912,28,古川アメダス,宮城県,大崎市
34241,雄勝,ｵｶﾞﾂ,38.52,141.465,24,雄勝アメダス,宮城県,石巻市
34262,泉ケ岳,ｲｽﾞﾐｶﾞﾀﾞｹ,38.407,140.722,630,泉ケ岳アメダス,宮城県,仙台市
34266,大衡,ｵｵﾋﾗ,38.473,140.888,57,大衡アメダス,宮城県,黒川郡大衡村
34276,鹿島台,ｶｼﾏﾀﾞｲ,38.46,141.092,3,鹿島台アメダス,宮城県,大崎市
34292,石巻,ｲｼﾉﾏｷ,38.427,141.298,43,石巻特別地域気象観測所,宮城県,石巻市
34296,女川,ｵﾅｶﾞﾜ,38.447,141.45,38,女川アメダス,宮城県,牡鹿郡女川町
34311,新川,ﾆｯｶﾜ,38.303,140.637,265,新川アメダス,宮城県,仙台市
34331,塩釜,ｼｵｶﾞﾏ,38.338,141.013,105,塩釜アメダス,宮城県,塩竈市
34392,仙台,ｾﾝﾀﾞｲ,38.262,140.897,39,仙台管区気象台,宮城県,仙台市
34436,名取,ﾅﾄﾘ,38.138,140.917,2,仙台航空気象観測所,宮城県,名取市
34461,白石,ｼﾛｲｼ,38.015,140.612,86,白石アメダス,宮城県,白石市
34462,蔵王,ｻﾞｵｳ,38.127,140.68,112,蔵王アメダス,宮城県,刈田郡蔵王町
34471,亘理,ﾜﾀﾘ,38.025,140.858,4,亘理アメダス,宮城県,亘理郡亘理町
34506,丸森,ﾏﾙﾓﾘ,37.932,140.778,18,丸森アメダス,宮城県,伊具郡丸森町
34526,筆甫,ﾋｯﾎﾟ,37.827,140.728,305,筆甫アメダス,宮城県,伊具郡丸森町
35002,飛島,ﾄﾋﾞｼﾏ,39.183,139.543,58,飛島アメダス,山形県,酒田市
35052,酒田,ｻｶﾀ,38.908,139.843,3,酒田特別地域気象観測所,山形県,酒田市
35056,酒田大沢,ｻｶﾀｵｵｻﾜ,38.965,139.998,65,酒田大沢アメダス,山形県,酒田市
35071,差首鍋,ｻｽﾅﾍﾞ,38.918,140.2,88,差首鍋アメダス,山形県,最上郡真室川町
35086,浜中,ﾊﾏﾅｶ,38.812,139.787,22,庄内航空気象観測所,山形県,酒田市
35116,金山,ｶﾈﾔﾏ,38.878,140.332,170,金山アメダス,山形県,最上郡金山町
35141,鶴岡,ﾂﾙｵｶ,38.735,139.828,16,鶴岡アメダス,山形県,鶴岡市
35146,狩川,ｶﾘｶﾜ,38.8,139.973,17,狩川アメダス,山形県,東田川郡庄内町
35162,新庄,ｼﾝｼﾞｮｳ,38.757,140.312,105,新庄特別地域気象観測所,山形県,新庄市
35171,瀬見,ｾﾐ,38.755,140.413,150,瀬見アメダス,山形県,最上郡最上町
35176,向町,ﾑｶｲﾏﾁ,38.758,140.517,212,向町アメダス,山形県,最上郡最上町
35201,櫛引,ｸｼﾋﾞｷ,38.672,139.848,33,櫛引アメダス,山形県,鶴岡市
35216,肘折,ﾋｼﾞｵﾘ,38.607,140.163,330,肘折アメダス,山形県,最上郡大蔵村
35231,尾花沢,ｵﾊﾞﾅｻﾞﾜ,38.608,140.412,106,尾花沢アメダス,山形県,尾花沢市
35246,鼠ケ関,ﾈｽﾞｶﾞｾｷ,38.567,139.552,18,鼠ケ関アメダス,山形県,鶴岡市
35256,荒沢,ｱﾗｻﾜ,38.508,139.782,272,荒沢アメダス,山形県,鶴岡市
35332,村山,ﾑﾗﾔﾏ,38.46,140.348,80,村山アメダス,山形県,村山市
35334,東根,ﾋｶﾞｼﾈ,38.412,140.37,105,山形航空気象観測所,山形県,東根市
35361,大井沢,ｵｵｲｻﾜ,38.39,139.993,440,大井沢アメダス,山形県,西村山郡西川町
35376,左沢,ｱﾃﾗｻﾞﾜ,38.37,140.192,133,左沢アメダス,山形県,西村山郡大江町
35426,山形,ﾔﾏｶﾞﾀ,38.255,140.345,153,山形地方気象台,山形県,山形市
35456,長井,ﾅｶﾞｲ,38.105,140.015,210,長井アメダス,山形県,長井市
35466,上山中山,ｶﾐﾉﾔﾏﾅｶﾔﾏ,38.117,140.213,270,上山中山アメダス,山形県,上山市
35486,小国,ｵｸﾞﾆ,38.078,139.735,140,小国アメダス,山形県,西置賜郡小国町
35511,高畠,ﾀｶﾊﾀ,38.003,140.207,220,高畠アメダス,山形県,東置賜郡高畠町
35537,中津川,ﾅｶﾂｶﾞﾜ,37.91,139.843,390,中津川アメダス,山形県,西置賜郡飯豊町
35541,高峰,ﾀｶﾐﾈ,37.99,139.953,260,高峰アメダス,山形県,西置賜郡飯豊町
35552,米沢,ﾖﾈｻﾞﾜ,37.912,140.143,245,米沢アメダス,山形県,米沢市
36056,茂庭,ﾓﾆﾜ,37.892,140.437,200,茂庭アメダス,福島県,福島市
36066,梁川,ﾔﾅｶﾞﾜ,37.852,140.588,43,梁川アメダス,福島県,伊達市
36106,桧原,ﾋﾊﾞﾗ,37.722,140.058,824,桧原アメダス,福島県,耶麻郡北塩原村
36127,福島,ﾌｸｼﾏ,37.758,140.47,67,福島地方気象台,福島県,福島市
36151,相馬,ｿｳﾏ,37.783,140.925,9,相馬アメダス,福島県,相馬市
36176,喜多方,ｷﾀｶﾀ,37.658,139.863,212,喜多方アメダス,福島県,喜多方市
36196,鷲倉,ﾜｼｸﾗ,37.668,140.26,1220,鷲倉アメダス,福島県,福島市
36221,飯舘,ｲｲﾀﾃ,37.665,140.727,463,飯舘アメダス,福島県,相馬郡飯舘村
36231,原町,ﾊﾗﾏﾁ,37.638,140.983,17,原町アメダス,福島県,南相馬市
36251,西会津,ﾆｼｱｲﾂﾞ,37.588,139.657,165,西会津アメダス,福島県,耶麻郡西会津町
36276,猪苗代,ｲﾅﾜｼﾛ,37.552,140.108,519,猪苗代アメダス,福島県,耶麻郡猪苗代町
36291,二本松,ﾆﾎﾝﾏﾂ,37.583,140.43,235,二本松アメダス,福島県,二本松市
36307,津島,ﾂｼﾏ,37.56,140.753,400,津島アメダス,福島県,双葉郡浪江町
36342,金山,ｶﾈﾔﾏ,37.473,139.528,296,金山アメダス,福島県,大沼郡金山町
36361,若松,ﾜｶﾏﾂ,37.488,139.91,212,若松特別地域気象観測所,福島県,会津若松市
36391,船引,ﾌﾈﾋｷ,37.435,140.577,421,船引アメダス,福島県,田村市
36411,浪江,ﾅﾐｴ,37.492,140.965,43,浪江アメダス,福島県,双葉郡浪江町
36426,只見,ﾀﾀﾞﾐ,37.343,139.313,377,只見アメダス,福島県,南会津郡只見町
36461,湖南,ｺﾅﾝ,37.388,140.09,536,湖南アメダス,福島県,郡山市
36476,郡山,ｺｵﾘﾔﾏ,37.368,140.33,249,郡山アメダス,福島県,郡山市
36501,川内,ｶﾜｳﾁ,37.337,140.808,410,川内アメダス,福島県,双葉郡川内村
36511,富岡,ﾄﾐｵｶ,37.347,141.017,50,富岡アメダス,福島県,双葉郡富岡町
36536,南郷,ﾅﾝｺﾞｳ,37.265,139.537,494,南郷アメダス,福島県,南会津郡南会津町
36562,湯本,ﾕﾓﾄ,37.277,140.063,646,湯本アメダス,福島県,岩瀬郡天栄村
36571,長沼,ﾅｶﾞﾇﾏ,37.288,140.218,317,長沼アメダス,福島県,須賀川市
36581,玉川,ﾀﾏｶﾜ,37.227,140.427,372,福島航空気象観測所,福島県,石川郡玉川村
36591,小野新町,ｵﾉﾆｲﾏﾁ,37.287,140.625,433,小野新町アメダス,福島県,田村郡小野町
36597,川前,ｶﾜﾏｴ,37.247,140.723,492,川前アメダス,福島県,いわき市
36611,広野,ﾋﾛﾉ,37.233,141,43,広野アメダス,福島県,双葉郡広野町
36641,田島,ﾀｼﾞﾏ,37.207,139.795,544,田島アメダス,福島県,南会津郡南会津町
36667,白河,ｼﾗｶﾜ,37.132,140.215,355,白河特別地域気象観測所,福島県,白河市
36676,石川,ｲｼｶﾜ,37.147,140.46,290,石川アメダス,福島県,石川郡石川町
36716,桧枝岐,ﾋﾉｴﾏﾀ,37.01,139.375,973,桧枝岐アメダス,福島県,南会津郡檜枝岐村
36726,舘岩,ﾀﾃｲﾜ,37.092,139.532,690,舘岩アメダス,福島県,南会津郡南会津町
36781,平,ﾀｲﾗ,37.065,140.877,12,平アメダス,福島県,いわき市
36821,東白川,ﾋｶﾞｼｼﾗｶﾜ,36.938,140.408,183,東白川アメダス,福島県,東白川郡塙町
36836,山田,ﾔﾏﾀﾞ,36.933,140.733,25,山田アメダス,福島県,いわき市
36846,小名浜,ｵﾅﾊﾏ,36.947,140.903,3,小名浜特別地域気象観測所,福島県,いわき市
40041,花園,ﾊﾅｿﾞﾉ,36.868,140.637,370,花園アメダス,茨城県,北茨城市
40046,北茨城,ｷﾀｲﾊﾞﾗｷ,36.833,140.772,5,北茨城アメダス,茨城県,北茨城市
40061,大子,ﾀﾞｲｺﾞ,36.778,140.345,120,大子アメダス,茨城県,久慈郡大子町
40066,徳田,ﾄｸﾀﾞ,36.778,140.482,270,徳田アメダス,茨城県,常陸太田市
40076,大能,ｵｵﾉｳ,36.743,140.593,395,大能アメダス,茨城県,高萩市
40091,常陸大宮,ﾋﾀﾁｵｵﾐﾔ,36.607,140.325,95,常陸大宮アメダス,茨城県,常陸大宮市
40126,中野,ﾅｶﾉ,36.515,140.473,17,中野アメダス,茨城県,常陸太田市
40136,日立,ﾋﾀﾁ,36.58,140.645,34,日立アメダス,茨城県,日立市
40181,門井,ｶﾄﾞｲ,36.333,140.033,40,門井アメダス,茨城県,筑西市
40191,笠間,ｶｻﾏ,36.395,140.24,72,笠間アメダス,茨城県,笠間市
40201,水戸,ﾐﾄ,36.38,140.467,29,水戸地方気象台,茨城県,水戸市
40221,古河,ｺｶﾞ,36.202,139.717,20,古河アメダス,茨城県,古河市
40231,下館,ｼﾓﾀﾞﾃ,36.282,139.988,24,下館アメダス,茨城県,筑西市
40241,柿岡,ｶｷｵｶ,36.233,140.188,27,柿岡アメダス,茨城県,石岡市
40251,美野里,ﾐﾉﾘ,36.237,140.325,25,美野里アメダス,茨城県,小美玉市
40281,下妻,ｼﾓﾂﾏ,36.168,139.945,20,下妻アメダス,茨城県,下妻市
40311,鉾田,ﾎｺﾀ,36.168,140.527,32,鉾田アメダス,茨城県,鉾田市
40326,坂東,ﾊﾞﾝﾄﾞｳ,36.043,139.892,16,坂東アメダス,茨城県,坂東市
40336,つくば,ﾂｸﾊﾞ,36.057,140.125,25,高層気象台,茨城県,つくば市
40341,土浦,ﾂﾁｳﾗ,36.103,140.22,26,土浦アメダス,茨城県,土浦市
40391,江戸崎,ｴﾄﾞｻｷ,35.96,140.32,25,江戸崎アメダス,茨城県,稲敷市
40406,鹿嶋,ｶｼﾏ,35.963,140.622,37,鹿嶋アメダス,茨城県,鹿嶋市
40426,龍ケ崎,ﾘｭｳｶﾞｻｷ,35.89,140.212,4,龍ケ崎アメダス,茨城県,龍ケ崎市
41011,那須高原,ﾅｽｺｳｹﾞﾝ,37.123,140.035,749,那須高原アメダス,栃木県,那須郡那須町
41076,五十里,ｲｶﾘ,36.922,139.695,620,五十里アメダス,栃木県,日光市
41091,黒磯,ｸﾛｲｿ,36.982,140.018,343,黒磯アメダス,栃木県,那須塩原市
41116,土呂部,ﾄﾞﾛﾌﾞ,36.892,139.568,925,土呂部アメダス,栃木県,日光市
41141,大田原,ｵｵﾀﾜﾗ,36.84,140.035,188,大田原アメダス,栃木県,大田原市
41166,奥日光,ｵｸﾆｯｺｳ,36.738,139.5,1292,日光特別地域気象観測所,栃木県,日光市
41172,日光東町,ﾆｯｺｳﾋｶﾞｼﾏﾁ,36.75,139.615,561,日光東町アメダス,栃木県,日光市
41181,塩谷,ｼｵﾔ,36.757,139.883,225,塩谷アメダス,栃木県,塩谷郡塩谷町
41211,足尾,ｱｼｵ,36.647,139.448,650,足尾アメダス,栃木県,日光市
41241,高根沢,ﾀｶﾈｻﾞﾜ,36.607,139.998,148,高根沢アメダス,栃木県,塩谷郡高根沢町
41247,那須烏山,ﾅｽｶﾗｽﾔﾏ,36.642,140.117,82,那須烏山アメダス,栃木県,那須烏山市
41271,鹿沼,ｶﾇﾏ,36.592,139.735,165,鹿沼アメダス,栃木県,鹿沼市
41277,宇都宮,ｳﾂﾉﾐﾔ,36.548,139.868,119,宇都宮地方気象台,栃木県,宇都宮市
41311,葛生,ｸｽﾞｳ,36.432,139.59,120,葛生アメダス,栃木県,佐野市
41331,真岡,ﾓｵｶ,36.477,139.987,91,真岡アメダス,栃木県,真岡市
41356,足利,ｱｼｶｶﾞ,36.342,139.462,35,足利アメダス,栃木県,足利市
41361,佐野,ｻﾉ,36.363,139.57,68,佐野アメダス,栃木県,佐野市
41371,栃木,ﾄﾁｷﾞ,36.373,139.703,65,栃木アメダス,栃木県,栃木市
41376,小山,ｵﾔﾏ,36.338,139.83,44,小山アメダス,栃木県,小山市
42046,藤原,ﾌｼﾞﾜﾗ,36.863,139.058,700,藤原アメダス,群馬県,利根郡みなかみ町
42091,みなかみ,ﾐﾅｶﾐ,36.773,138.965,524,みなかみアメダス,群馬県,利根郡みなかみ町
42106,片品,ｶﾀｼﾅ,36.772,139.238,861,片品アメダス,群馬県,利根郡片品村
42121,草津,ｸｻﾂ,36.617,138.592,1223,草津アメダス,群馬県,吾妻郡草津町
42146,沼田,ﾇﾏﾀ,36.668,139.022,390,沼田アメダス,群馬県,沼田市
42186,中之条,ﾅｶﾉｼﾞｮｳ,36.587,138.85,354,中之条アメダス,群馬県,吾妻郡中之条町
42221,田代,ﾀｼﾛ,36.463,138.463,1230,田代アメダス,群馬県,吾妻郡嬬恋村
42241,榛名山,ﾊﾙﾅｻﾝ,36.472,138.873,1088,榛名山アメダス,群馬県,高崎市
42251,前橋,ﾏｴﾊﾞｼ,36.405,139.06,112,前橋地方気象台,群馬県,前橋市
42261,黒保根,ｸﾛﾎﾈ,36.502,139.283,285,黒保根アメダス,群馬県,桐生市
42266,桐生,ｷﾘｭｳ,36.41,139.325,117,桐生アメダス,群馬県,桐生市
42286,上里見,ｶﾐｻﾄﾐ,36.377,138.895,183,上里見アメダス,群馬県,高崎市
42302,伊勢崎,ｲｾｻｷ,36.332,139.165,64,伊勢崎アメダス,群馬県,伊勢崎市
42326,西野牧,ﾆｼﾉﾏｷ,36.245,138.707,375,西野牧アメダス,群馬県,甘楽郡下仁田町
42341,藤岡,ﾌｼﾞｵｶ,36.242,139.07,95,藤岡アメダス,群馬県,藤岡市
42366,館林,ﾀﾃﾊﾞﾔｼ,36.24,139.513,23,館林アメダス,群馬県,館林市
42396,神流,ｶﾝﾅ,36.108,138.897,357,神流アメダス,群馬県,多野郡神流町
43051,寄居,ﾖﾘｲ,36.105,139.183,128,寄居アメダス,埼玉県,大里郡寄居町
43056,熊谷,ｸﾏｶﾞﾔ,36.15,139.38,30,熊谷地方気象台,埼玉県,熊谷市
43091,上吉田,ｶﾐﾖｼﾀﾞ,36.053,138.98,275,上吉田アメダス,埼玉県,秩父市
43121,鴻巣,ｺｳﾉｽ,36.065,139.522,15,鴻巣アメダス,埼玉県,鴻巣市
43126,久喜,ｸｷ,36.087,139.635,12,久喜アメダス,埼玉県,久喜市
43151,三峰,ﾐﾂﾐﾈ,35.927,138.923,975,三峰アメダス,埼玉県,秩父市
43156,秩父,ﾁﾁﾌﾞ,35.99,139.073,232,秩父特別地域気象観測所,埼玉県,秩父市
43157,浦山,ｳﾗﾔﾏ,35.92,139.07,400,浦山アメダス,埼玉県,秩父市
43162,ときがわ,ﾄｷｶﾞﾜ,35.99,139.207,295,ときがわアメダス,埼玉県,比企郡ときがわ町
43171,鳩山,ﾊﾄﾔﾏ,35.985,139.335,44,鳩山アメダス,埼玉県,比企郡鳩山町
43231,飯能,ﾊﾝﾉｳ,35.838,139.322,84,飯能アメダス,埼玉県,飯能市
43241,さいたま,ｻｲﾀﾏ,35.875,139.587,8,さいたまアメダス,埼玉県,さいたま市
43256,越谷,ｺｼｶﾞﾔ,35.883,139.757,3,越谷アメダス,埼玉県,越谷市
43266,所沢,ﾄｺﾛｻﾞﾜ,35.773,139.413,119,所沢アメダス,埼玉県,所沢市
44046,小河内,ｵｺﾞｳﾁ,35.792,139.05,530,小河内アメダス,東京都,西多摩郡奥多摩町
44051,小沢,ｵｻﾞﾜ,35.735,139.123,420,小沢アメダス,東京都,西多摩郡檜原村
44056,青梅,ｵｳﾒ,35.788,139.312,155,青梅アメダス,東京都,青梅市
44071,練馬,ﾈﾘﾏ,35.738,139.592,51,練馬アメダス,東京都,練馬区
44112,八王子,ﾊﾁｵｳｼﾞ,35.667,139.317,123,八王子アメダス,東京都,八王子市
44116,府中,ﾌﾁｭｳ,35.683,139.483,59,府中アメダス,東京都,府中市
44126,世田谷,ｾﾀｶﾞﾔ,35.627,139.62,35,世田谷アメダス,東京都,世田谷区
44132,東京,ﾄｳｷｮｳ,35.692,139.75,25,東京管区気象台,東京都,千代田区
44136,江戸川臨海,ｴﾄﾞｶﾞﾜﾘﾝｶｲ,35.638,139.863,5,江戸川臨海アメダス,東京都,江戸川区臨海町
44166,羽田,ﾊﾈﾀﾞ,35.553,139.78,6,東京航空地方気象台,東京都,大田区
44172,大島,ｵｵｼﾏ,34.748,139.362,74,大島特別地域気象観測所,東京都,大島町
44173,大島北ノ山,ｵｵｼﾏｷﾀﾉﾔﾏ,34.782,139.36,38,大島航空気象観測所,東京都,大島町
44191,利島,ﾄｼﾏ,34.528,139.282,100,利島アメダス,東京都,利島村
44207,新島,ﾆｲｼﾞﾏ,34.368,139.268,29,新島航空気象観測所,東京都,新島村
44216,神津島,ｺｳﾂﾞｼﾏ,34.188,139.133,138,神津島航空気象観測所,東京都,神津島村
44226,三宅島,ﾐﾔｹｼﾞﾏ,34.123,139.52,38,三宅島特別地域気象観測所,東京都,三宅村
44228,三宅坪田,ﾐﾔｹﾂﾎﾞﾀ,34.073,139.56,20,三宅島航空気象観測所,東京都,三宅村
44262,八重見ヶ原,ﾔｴﾐｶﾞﾊﾗ,33.115,139.785,92,八丈島航空気象観測所,東京都,八丈島八丈町
44263,八丈島,ﾊﾁｼﾞｮｳｼﾞﾏ,33.122,139.778,151,八丈島特別地域気象観測所,東京都,八丈島八丈町
44281,青ヶ島,ｱｵｶﾞｼﾏ,32.467,139.76,272,青ヶ島アメダス,東京都,青ヶ島村
44301,父島,ﾁﾁｼﾞﾏ,27.092,142.19,3,父島気象観測所,東京都,小笠原村父島字西町
44316,母島,ﾊﾊｼﾞﾏ,26.635,142.162,32,母島アメダス,東京都,小笠原村
44356,南鳥島,ﾐﾅﾐﾄﾘｼﾏ,24.288,153.983,7,南鳥島気象観測所,東京都,小笠原村
45061,我孫子,ｱﾋﾞｺ,35.863,140.11,20,我孫子アメダス,千葉県,我孫子市
45081,香取,ｶﾄﾘ,35.858,140.502,37,香取アメダス,千葉県,香取市
45086,東庄,ﾄｳﾉｼｮｳ,35.795,140.682,52,東庄アメダス,千葉県,香取郡東庄町
45106,船橋,ﾌﾅﾊﾞｼ,35.712,140.043,28,船橋アメダス,千葉県,船橋市
45116,佐倉,ｻｸﾗ,35.728,140.212,5,佐倉アメダス,千葉県,佐倉市
45121,成田,ﾅﾘﾀ,35.763,140.385,41,成田航空地方気象台,千葉県,成田市
45148,銚子,ﾁｮｳｼ,35.738,140.857,20,銚子地方気象台,千葉県,銚子市
45181,横芝光,ﾖｺｼﾊﾞﾋｶﾘ,35.655,140.505,5,横芝光アメダス,千葉県,山武郡横芝光町
45212,千葉,ﾁﾊﾞ,35.602,140.103,3,千葉特別地域気象観測所,千葉県,千葉市
45261,茂原,ﾓﾊﾞﾗ,35.437,140.293,11,茂原アメダス,千葉県,茂原市
45282,木更津,ｷｻﾗﾂﾞ,35.362,139.94,60,木更津アメダス,千葉県,木更津市
45291,牛久,ｳｼｸ,35.397,140.148,30,牛久アメダス,千葉県,市原市
45326,坂畑,ｻｶﾊﾀ,35.235,140.098,120,坂畑アメダス,千葉県,君津市
45331,大多喜,ｵｵﾀｷ,35.252,140.215,70,大多喜アメダス,千葉県,夷隅郡大多喜町
45346,鋸南,ｷｮﾅﾝ,35.122,139.837,10,鋸南アメダス,千葉県,安房郡鋸南町
45361,鴨川,ｶﾓｶﾞﾜ,35.112,140.1,5,鴨川アメダス,千葉県,鴨川市
45371,勝浦,ｶﾂｳﾗ,35.15,140.312,12,勝浦特別地域気象観測所,千葉県,勝浦市
45401,館山,ﾀﾃﾔﾏ,34.987,139.865,6,館山特別地域気象観測所,千葉県,館山市
46001,相模湖,ｻｶﾞﾐｺ,35.613,139.193,188,相模湖アメダス,神奈川県,相模原市
46046,相模原中央,ｻｶﾞﾐﾊﾗﾁｭｳｵｳ,35.572,139.37,149,相模原中央アメダス,神奈川県,相模原市
46061,日吉,ﾋﾖｼ,35.552,139.65,57,日吉アメダス,神奈川県,横浜市
46076,丹沢湖,ﾀﾝｻﾞﾜｺ,35.41,139.043,330,丹沢湖アメダス,神奈川県,足柄上郡山北町
46091,海老名,ｴﾋﾞﾅ,35.433,139.387,18,海老名アメダス,神奈川県,海老名市
46106,横浜,ﾖｺﾊﾏ,35.438,139.652,39,横浜地方気象台,神奈川県,横浜市
46136,平塚,ﾋﾗﾂｶ,35.345,139.305,20,平塚アメダス,神奈川県,平塚市
46141,辻堂,ﾂｼﾞﾄﾞｳ,35.32,139.45,5,辻堂アメダス,神奈川県,藤沢市
46161,箱根,ﾊｺﾈ,35.222,139.042,855,箱根アメダス,神奈川県,足柄下郡箱根町
46166,小田原,ｵﾀﾞﾜﾗ,35.277,139.155,14,小田原アメダス,神奈川県,小田原市
46211,三浦,ﾐｳﾗ,35.178,139.63,42,三浦アメダス,神奈川県,三浦市
48031,野沢温泉,ﾉｻﾞﾜｵﾝｾﾝ,36.912,138.442,576,野沢温泉アメダス,長野県,下高井郡野沢温泉村
48061,信濃町,ｼﾅﾉﾏﾁ,36.808,138.197,685,信濃町アメダス,長野県,上水内郡信濃町
48066,飯山,ｲｲﾔﾏ,36.875,138.375,313,飯山アメダス,長野県,飯山市
48097,小谷,ｵﾀﾘ,36.822,137.93,550,小谷アメダス,長野県,北安曇郡小谷村
48141,白馬,ﾊｸﾊﾞ,36.698,137.862,703,白馬アメダス,長野県,北安曇郡白馬村
48146,鬼無里,ｷﾅｻ,36.688,137.965,778,鬼無里アメダス,長野県,長野市
48156,長野,ﾅｶﾞﾉ,36.662,138.192,418,長野地方気象台,長野県,長野市
48172,笠岳,ｶｻﾀﾞｹ,36.665,138.458,1473,笠岳アメダス,長野県,上高井郡高山村
48191,大町,ｵｵﾏﾁ,36.523,137.832,784,大町アメダス,長野県,大町市
48196,信州新町,ｼﾝｼｭｳｼﾝﾏﾁ,36.548,137.997,509,信州新町アメダス,長野県,長野市
48216,菅平,ｽｶﾞﾀﾞｲﾗ,36.532,138.325,1253,菅平アメダス,長野県,上田市
48247,聖高原,ﾋｼﾞﾘｺｳｹﾞﾝ,36.487,138.068,985,聖高原アメダス,長野県,東筑摩郡麻績村
48256,上田,ｳｴﾀﾞ,36.4,138.265,502,上田アメダス,長野県,上田市
48296,穂高,ﾎﾀｶ,36.343,137.882,540,穂高アメダス,長野県,安曇野市
48321,東御,ﾄｳﾐ,36.383,138.383,958,東御アメダス,長野県,東御市
48331,軽井沢,ｶﾙｲｻﾞﾜ,36.342,138.547,999,軽井沢特別地域気象観測所,長野県,北佐久郡軽井沢町
48346,上高地,ｶﾐｺｳﾁ,36.248,137.633,1510,上高地アメダス,長野県,松本市
48361,松本,ﾏﾂﾓﾄ,36.247,137.97,610,松本特別地域気象観測所,長野県,松本市
48363,松本今井,ﾏﾂﾓﾄｲﾏｲ,36.167,137.922,658,松本航空気象観測所,長野県,松本市
48371,鹿教湯,ｶｹﾕ,36.302,138.137,721,鹿教湯アメダス,長野県,上田市
48381,立科,ﾀﾃｼﾅ,36.272,138.313,715,立科アメダス,長野県,北佐久郡立科町
48386,佐久,ｻｸ,36.247,138.477,683,佐久アメダス,長野県,佐久市
48436,白樺湖,ｼﾗｶﾊﾞｺ,36.105,138.228,1440,白樺湖アメダス,長野県,茅野市
48466,奈川,ﾅｶﾞﾜ,36.088,137.683,1068,奈川アメダス,長野県,松本市
48491,諏訪,ｽﾜ,36.045,138.108,760,諏訪特別地域気象観測所,長野県,諏訪市
48516,北相木,ｷﾀｱｲｷ,36.072,138.612,1185,北相木アメダス,長野県,南佐久郡北相木村
48531,開田高原,ｶｲﾀﾞｺｳｹﾞﾝ,35.938,137.602,1130,開田高原アメダス,長野県,木曽郡木曽町
48536,木祖薮原,ｷｿﾔﾌﾞﾊﾗ,35.937,137.787,985,木祖薮原アメダス,長野県,木曽郡木祖村
48546,辰野,ﾀﾂﾉ,35.983,137.983,732,辰野アメダス,長野県,上伊那郡辰野町
48556,高遠,ﾀｶﾄｵ,35.953,138.108,1075,高遠アメダス,長野県,伊那市
48561,原村,ﾊﾗﾑﾗ,35.97,138.22,1017,原村アメダス,長野県,諏訪郡原村
48571,野辺山,ﾉﾍﾞﾔﾏ,35.948,138.472,1350,野辺山アメダス,長野県,南佐久郡南牧村
48601,御嶽山,ｵﾝﾀｹｻﾝ,35.872,137.503,2195,御嶽山アメダス,長野県,木曽郡王滝村
48606,木曽福島,ｷｿﾌｸｼﾏ,35.84,137.688,750,木曽福島アメダス,長野県,木曽郡木曽町
48621,伊那,ｲﾅ,35.825,137.955,633,伊那アメダス,長野県,伊那市
48681,宮田高原,ﾐﾔﾀﾞｺｳｹﾞﾝ,35.773,137.885,1660,宮田高原アメダス,長野県,上伊那郡宮田村
48691,杉島,ｽｷﾞｼﾏ,35.727,138.093,905,杉島アメダス,長野県,伊那市
48716,須原,ｽﾊﾗ,35.698,137.692,535,須原アメダス,長野県,木曽郡大桑村
48717,南木曽,ﾅｷﾞｿ,35.61,137.62,560,南木曽アメダス,長野県,木曽郡南木曽町
48731,飯島,ｲｲｼﾞﾏ,35.653,137.898,728,飯島アメダス,長野県,上伊那郡飯島町
48737,大鹿,ｵｵｼｶ,35.557,138.04,718,大鹿アメダス,長野県,下伊那郡大鹿村
48767,飯田,ｲｲﾀﾞ,35.523,137.822,516,飯田特別地域気象観測所,長野県,飯田市
48826,浪合,ﾅﾐｱｲ,35.373,137.692,940,浪合アメダス,長野県,下伊那郡阿智村
48836,阿南,ｱﾅﾝ,35.313,137.812,610,阿南アメダス,長野県,下伊那郡阿南町
48841,南信濃,ﾐﾅﾐｼﾅﾉ,35.322,137.932,407,南信濃アメダス,長野県,飯田市
49036,大泉,ｵｵｲｽﾞﾐ,35.862,138.387,867,大泉アメダス,山梨県,北杜市
49052,乙女湖,ｵﾄﾒｺ,35.807,138.655,1465,乙女湖アメダス,山梨県,山梨市
49086,韮崎,ﾆﾗｻｷ,35.693,138.448,341,韮崎アメダス,山梨県,韮崎市
49142,甲府,ｺｳﾌ,35.667,138.553,273,甲府地方気象台,山梨県,甲府市
49151,勝沼,ｶﾂﾇﾏ,35.663,138.725,394,勝沼アメダス,山梨県,甲州市
49161,大月,ｵｵﾂｷ,35.608,138.938,364,大月アメダス,山梨県,大月市
49172,上野原,ｳｴﾉﾊﾗ,35.62,139.105,187,上野原アメダス,山梨県,上野原市
49187,富士川,ﾌｼﾞｶﾜ,35.562,138.448,295,富士川アメダス,山梨県,南巨摩郡富士川町
49196,古関,ﾌﾙｾｷ,35.528,138.615,552,古関アメダス,山梨県,甲府市
49236,切石,ｷﾘｲｼ,35.467,138.442,226,切石アメダス,山梨県,南巨摩郡身延町
49251,河口湖,ｶﾜｸﾞﾁｺ,35.5,138.76,860,河口湖特別地域気象観測所,山梨県,南都留郡富士河口湖町
49256,山中,ﾔﾏﾅｶ,35.437,138.837,992,山中アメダス,山梨県,南都留郡山中湖村
49316,南部,ﾅﾝﾌﾞ,35.288,138.445,141,南部アメダス,山梨県,南巨摩郡南部町
50056,白糸,ｼﾗｲﾄ,35.312,138.578,530,白糸アメダス,静岡県,富士宮市
50066,富士山,ﾌｼﾞｻﾝ,35.36,138.727,3775,富士山特別地域気象観測所,静岡県,富士宮市
50106,井川,ｲｶﾜ,35.217,138.222,755,井川アメダス,静岡県,静岡市
50112,有東木,ｳﾄｳｷﾞ,35.207,138.368,585,有東木アメダス,静岡県,静岡市
50136,御殿場,ｺﾞﾃﾝﾊﾞ,35.305,138.927,472,御殿場アメダス,静岡県,御殿場市
50196,富士,ﾌｼﾞ,35.185,138.663,66,富士アメダス,静岡県,富士市
50206,三島,ﾐｼﾏ,35.113,138.925,21,三島特別地域気象観測所,静岡県,三島市
50226,佐久間,ｻｸﾏ,35.057,137.762,150,佐久間アメダス,静岡県,浜松市
50232,春野,ﾊﾙﾉ,35.012,137.945,486,春野アメダス,静岡県,浜松市
50241,川根本町,ｶﾜﾈﾎﾝﾁｮｳ,35.102,138.128,290,川根本町アメダス,静岡県,榛原郡川根本町
50247,鍵穴,ｶｷﾞｱﾅ,35.048,138.247,160,鍵穴アメダス,静岡県,静岡市
50261,清水,ｼﾐｽﾞ,35.053,138.522,3,清水アメダス,静岡県,静岡市
50281,網代,ｱｼﾞﾛ,35.045,139.092,67,網代特別地域気象観測所,静岡県,熱海市
50296,熊,ｸﾏ,34.958,137.733,375,熊アメダス,静岡県,浜松市
50317,高根山,ﾀｶﾈｻﾝ,34.975,138.197,415,高根山アメダス,静岡県,藤枝市
50331,静岡,ｼｽﾞｵｶ,34.975,138.403,14,静岡地方気象台,静岡県,静岡市
50371,三ヶ日,ﾐｯｶﾋﾞ,34.802,137.557,2,三ヶ日アメダス,静岡県,浜松市
50386,天竜,ﾃﾝﾘｭｳ,34.89,137.813,61,天竜アメダス,静岡県,浜松市
50391,三倉,ﾐｸﾗ,34.895,137.94,114,三倉アメダス,静岡県,周智郡森町
50416,土肥,ﾄｲ,34.877,138.762,92,土肥アメダス,静岡県,伊豆市
50426,湯ケ島,ﾕｶﾞｼﾏ,34.9,138.925,165,湯ケ島アメダス,静岡県,伊豆市
50427,天城山,ｱﾏｷﾞｻﾝ,34.872,139.023,1066,天城山アメダス,静岡県,伊豆市
50456,浜松,ﾊﾏﾏﾂ,34.753,137.712,46,浜松特別地域気象観測所,静岡県,浜松市
50466,掛川,ｶｹｶﾞﾜ,34.768,137.995,32,掛川アメダス,静岡県,掛川市
50476,菊川牧之原,ｷｸｶﾞﾜﾏｷﾉﾊﾗ,34.785,138.138,191,菊川牧之原アメダス,静岡県,菊川市
50477,静岡空港,ｼｽﾞｵｶｸｳｺｳ,34.795,138.188,132,静岡航空気象観測所,静岡県,牧之原市
50491,松崎,ﾏﾂｻﾞｷ,34.755,138.783,4,松崎アメダス,静岡県,賀茂郡松崎町
50506,稲取,ｲﾅﾄﾘ,34.782,139.048,130,稲取アメダス,静岡県,賀茂郡東伊豆町
50536,磐田,ｲﾜﾀ,34.692,137.88,1,磐田アメダス,静岡県,磐田市
50551,御前崎,ｵﾏｴｻﾞｷ,34.603,138.213,45,御前崎特別地域気象観測所,静岡県,御前崎市
50561,石廊崎,ｲﾛｳｻﾞｷ,34.603,138.842,52,石廊崎特別地域気象観測所,静岡県,賀茂郡南伊豆町
51011,一宮,ｲﾁﾉﾐﾔ,35.298,136.853,11,一宮アメダス,愛知県,一宮市
51031,愛西,ｱｲｻｲ,35.217,136.698,5,愛西アメダス,愛知県,愛西市
51056,小原,ｵﾊﾞﾗ,35.228,137.285,290,小原アメダス,愛知県,豊田市
51071,稲武,ｲﾅﾌﾞ,35.212,137.507,505,稲武アメダス,愛知県,豊田市
51077,茶臼山,ﾁｬｳｽﾔﾏ,35.22,137.66,1216,茶臼山アメダス,愛知県,北設楽郡豊根村
51096,蟹江,ｶﾆｴ,35.137,136.792,2,蟹江アメダス,愛知県,海部郡蟹江町
51106,名古屋,ﾅｺﾞﾔ,35.167,136.965,51,名古屋地方気象台,愛知県,名古屋市
51116,豊田,ﾄﾖﾀ,35.132,137.177,75,豊田アメダス,愛知県,豊田市
51192,阿蔵,ｱｿﾞｳ,35.078,137.413,613,阿蔵アメダス,愛知県,豊田市
51216,大府,ｵｵﾌﾞ,34.995,136.943,32,大府アメダス,愛知県,大府市
51226,岡崎,ｵｶｻﾞｷ,34.918,137.193,47,岡崎アメダス,愛知県,岡崎市
51241,作手,ﾂｸﾃﾞ,34.977,137.425,532,作手アメダス,愛知県,新城市
51247,新城,ｼﾝｼﾛ,34.907,137.518,53,新城アメダス,愛知県,新城市
51261,セントレア,ｾﾝﾄﾚｱ,34.858,136.805,4,中部航空地方気象台,愛知県,常滑市
51271,一色,ｲｯｼｷ,34.812,137.028,12,一色アメダス,愛知県,西尾市
51281,蒲郡,ｶﾞﾏｺﾞｵﾘ,34.845,137.217,55,蒲郡アメダス,愛知県,蒲郡市
51311,南知多,ﾐﾅﾐﾁﾀ,34.74,136.938,16,南知多アメダス,愛知県,知多郡南知多町
51331,豊橋,ﾄﾖﾊｼ,34.75,137.342,3,豊橋アメダス,愛知県,豊橋市
51346,伊良湖,ｲﾗｺ,34.628,137.093,6,伊良湖特別地域気象観測所,愛知県,田原市
51356,田原,ﾀﾊﾗ,34.627,137.222,45,田原アメダス,愛知県,田原市
52041,河合,ｶﾜｲ,36.305,137.1,471,河合アメダス,岐阜県,飛騨市
52051,神岡,ｶﾐｵｶ,36.322,137.308,455,神岡アメダス,岐阜県,飛騨市
52081,白川,ｼﾗｶﾜ,36.273,136.897,478,白川アメダス,岐阜県,大野郡白川村
52111,栃尾,ﾄﾁｵ,36.248,137.503,765,栃尾アメダス,岐阜県,高山市
52131,御母衣,ﾐﾎﾞﾛ,36.147,136.908,640,御母衣アメダス,岐阜県,大野郡白川村
52137,清見,ｷﾖﾐ,36.18,137.045,740,清見アメダス,岐阜県,高山市
52146,高山,ﾀｶﾔﾏ,36.155,137.253,560,高山特別地域気象観測所,岐阜県,高山市
52152,丹生川,ﾆｭｳｶﾜ,36.187,137.372,910,丹生川アメダス,岐阜県,高山市
52173,ひるがの,ﾋﾙｶﾞﾉ,36.01,136.893,885,ひるがのアメダス,岐阜県,郡上市
52181,六厩,ﾑﾏﾔ,36.06,137.035,1015,六厩アメダス,岐阜県,高山市
52192,船山,ﾌﾅﾔﾏ,36.035,137.26,880,船山アメダス,岐阜県,高山市
52196,宮之前,ﾐﾔﾉﾏｴ,36.015,137.388,930,宮之前アメダス,岐阜県,高山市
52221,長滝,ﾅｶﾞﾀｷ,35.923,136.832,430,長滝アメダス,岐阜県,郡上市
52286,萩原,ﾊｷﾞﾜﾗ,35.888,137.207,425,萩原アメダス,岐阜県,下呂市
52321,関市板取,ｾｷｼｲﾀﾄﾞﾘ,35.723,136.783,351,関市板取アメダス,岐阜県,関市
52331,八幡,ﾊﾁﾏﾝ,35.757,136.978,271,八幡アメダス,岐阜県,郡上市
52346,宮地,ﾐﾔｼﾞ,35.763,137.288,450,宮地アメダス,岐阜県,下呂市
52381,樽見,ﾀﾙﾐ,35.638,136.602,190,樽見アメダス,岐阜県,本巣市
52406,金山,ｶﾅﾔﾏ,35.662,137.16,233,金山アメダス,岐阜県,下呂市
52421,付知,ﾂｹﾁ,35.662,137.427,461,付知アメダス,岐阜県,中津川市
52461,美濃,ﾐﾉ,35.555,136.91,68,美濃アメダス,岐阜県,美濃市
52476,伽藍,ｶﾞﾗﾝ,35.515,137.23,650,伽藍アメダス,岐阜県,加茂郡八百津町
52482,黒川,ｸﾛｶﾜ,35.598,137.318,517,黒川アメダス,岐阜県,加茂郡白川町
52511,揖斐川,ｲﾋﾞｶﾞﾜ,35.485,136.567,45,揖斐川アメダス,岐阜県,揖斐郡揖斐川町
52536,美濃加茂,ﾐﾉｶﾓ,35.445,137.005,74,美濃加茂アメダス,岐阜県,美濃加茂市
52556,恵那,ｴﾅ,35.447,137.403,315,恵那アメダス,岐阜県,恵那市
52557,中津川,ﾅｶﾂｶﾞﾜ,35.477,137.487,378,中津川アメダス,岐阜県,中津川市
52571,関ケ原,ｾｷｶﾞﾊﾗ,35.363,136.467,130,関ケ原アメダス,岐阜県,不破郡関ケ原町
52581,大垣,ｵｵｶﾞｷ,35.347,136.62,6,大垣アメダス,岐阜県,大垣市
52586,岐阜,ｷﾞﾌ,35.4,136.762,13,岐阜地方気象台,岐阜県,岐阜市
52606,多治見,ﾀｼﾞﾐ,35.347,137.108,120,多治見アメダス,岐阜県,多治見市
52642,上石津,ｶﾐｲｼﾂﾞ,35.247,136.458,193,上石津アメダス,岐阜県,大垣市
53016,北勢,ﾎｸｾｲ,35.143,136.538,125,北勢アメダス,三重県,いなべ市
53041,桑名,ｸﾜﾅ,35.05,136.693,3,桑名アメダス,三重県,桑名市
53061,四日市,ﾖｯｶｲﾁ,34.94,136.58,55,四日市特別地域気象観測所,三重県,四日市
53091,亀山,ｶﾒﾔﾏ,34.87,136.453,70,亀山アメダス,三重県,亀山市
53112,上野,ｳｴﾉ,34.762,136.142,159,上野特別地域気象観測所,三重県,伊賀市
53121,笠取山,ｶｻﾄﾘﾔﾏ,34.725,136.308,810,笠取山アメダス,三重県,津市
53133,津,ﾂ,34.733,136.518,3,津地方気象台,三重県,津市
53141,名張,ﾅﾊﾞﾘ,34.627,136.108,226,名張アメダス,三重県,名張市
53151,白山,ﾊｸｻﾝ,34.625,136.322,60,白山アメダス,三重県,津市
53196,小俣,ｵﾊﾞﾀ,34.528,136.665,10,小俣アメダス,三重県,伊勢市
53231,粥見,ｶﾕﾐ,34.448,136.39,120,粥見アメダス,三重県,松阪市
53257,鳥羽,ﾄﾊﾞ,34.482,136.825,2,鳥羽アメダス,三重県,鳥羽市
53287,藤坂峠,ﾌｼﾞｻｶﾄｳｹﾞ,34.323,136.488,560,藤坂峠アメダス,三重県,度会郡大紀町
53296,南伊勢,ﾐﾅﾐｲｾ,34.345,136.682,6,南伊勢アメダス,三重県,度会郡南伊勢町
53307,阿児,ｱｺﾞ,34.308,136.873,31,阿児アメダス,三重県,志摩市
53321,宮川,ﾐﾔｶﾞﾜ,34.278,136.208,205,宮川アメダス,三重県,多気郡大台町
53326,紀伊長島,ｷｲﾅｶﾞｼﾏ,34.208,136.327,3,紀伊長島アメダス,三重県,北牟婁郡紀北町
53378,尾鷲,ｵﾜｾ,34.068,136.193,15,尾鷲特別地域気象観測所,三重県,尾鷲市
53401,熊野新鹿,ｸﾏﾉｱﾀｼｶ,33.932,136.138,23,熊野新鹿アメダス,三重県,熊野市
53416,御浜,ﾐﾊﾏ,33.852,135.98,130,御浜アメダス,三重県,南牟婁郡御浜町
54012,粟島,ｱﾜｼﾏ,38.465,139.253,4,粟島アメダス,新潟県,岩船郡粟島浦村
54041,弾崎,ﾊｼﾞｷｻﾞｷ,38.33,138.512,58,弾崎アメダス,新潟県,佐渡市
54056,高根,ﾀｶﾈ,38.33,139.603,85,高根アメダス,新潟県,村上市
54086,村上,ﾑﾗｶﾐ,38.227,139.478,10,村上アメダス,新潟県,村上市
54097,三面,ﾐｵﾓﾃ,38.247,139.605,45,三面アメダス,新潟県,村上市
54157,相川,ｱｲｶﾜ,38.028,138.24,6,相川特別地域気象観測所,新潟県,佐渡市
54166,両津,ﾘｮｳﾂ,38.073,138.44,2,両津アメダス,新潟県,佐渡市
54181,中条,ﾅｶｼﾞｮｳ,38.077,139.388,14,中条アメダス,新潟県,胎内市
54191,下関,ｼﾓｾｷ,38.092,139.563,33,下関アメダス,新潟県,岩船郡関川村
54232,新潟,ﾆｲｶﾞﾀ,37.893,139.018,4,新潟地方気象台,新潟県,新潟市
54236,松浜,ﾏﾂﾊﾏ,37.955,139.112,1,新潟航空気象観測所,新潟県,新潟市
54271,羽茂,ﾊﾓﾁ,37.842,138.313,11,羽茂アメダス,新潟県,佐渡市
54296,新津,ﾆｲﾂ,37.792,139.087,3,新津アメダス,新潟県,新潟市
54301,瓢湖,ﾋｮｳｺ,37.833,139.237,9,瓢湖アメダス,新潟県,阿賀野市
54311,赤谷,ｱｶﾀﾞﾆ,37.835,139.415,135,赤谷アメダス,新潟県,新発田市
54341,巻,ﾏｷ,37.768,138.913,2,巻アメダス,新潟県,新潟市
54387,寺泊,ﾃﾗﾄﾞﾏﾘ,37.64,138.767,44,寺泊アメダス,新潟県,長岡市
54396,三条,ｻﾝｼﾞｮｳ,37.64,138.955,9,三条アメダス,新潟県,三条市
54406,村松,ﾑﾗﾏﾂ,37.697,139.188,25,村松アメダス,新潟県,五泉市
54421,津川,ﾂｶﾞﾜ,37.672,139.447,100,津川アメダス,新潟県,東蒲原郡阿賀町
54462,宮寄上,ﾐﾔﾖﾘｶﾐ,37.58,139.14,125,宮寄上アメダス,新潟県,加茂市
54472,室谷,ﾑﾛﾔ,37.55,139.37,200,室谷アメダス,新潟県,東蒲原郡阿賀町
54501,長岡,ﾅｶﾞｵｶ,37.45,138.823,23,長岡アメダス,新潟県,長岡市
54506,栃尾,ﾄﾁｵ,37.475,138.992,83,栃尾アメダス,新潟県,長岡市
54541,柏崎,ｶｼﾜｻﾞｷ,37.352,138.553,7,柏崎アメダス,新潟県,柏崎市
54566,守門,ｽﾓﾝ,37.347,139.043,222,守門アメダス,新潟県,魚沼市
54586,大潟,ｵｵｶﾞﾀ,37.225,138.325,13,大潟アメダス,新潟県,上越市
54606,小国,ｵｸﾞﾆ,37.292,138.702,83,小国アメダス,新潟県,長岡市
54616,小出,ｺｲﾃﾞ,37.227,138.963,98,小出アメダス,新潟県,魚沼市
54621,大湯,ｵｵﾕ,37.205,139.062,240,大湯アメダス,新潟県,魚沼市
54651,高田,ﾀｶﾀﾞ,37.107,138.247,13,高田特別地域気象観測所,新潟県,上越市
54661,安塚,ﾔｽﾂﾞｶ,37.107,138.457,126,安塚アメダス,新潟県,上越市
54666,川谷,ｶﾜﾀﾞﾆ,37.2,138.517,206,川谷アメダス,新潟県,上越市
54671,松代,ﾏﾂﾀﾞｲ,37.132,138.607,210,松代アメダス,新潟県,十日町市
54676,十日町,ﾄｵｶﾏﾁ,37.143,138.727,170,十日町アメダス,新潟県,十日町市
54711,糸魚川,ｲﾄｲｶﾞﾜ,37.043,137.875,8,糸魚川アメダス,新潟県,糸魚川市
54721,能生,ﾉｳ,37.083,138.023,55,能生アメダス,新潟県,糸魚川市
54737,筒方,ﾄﾞｳｶﾞﾀ,37.03,138.343,255,筒方アメダス,新潟県,上越市
54761,塩沢,ｼｵｻﾞﾜ,37.038,138.847,195,塩沢アメダス,新潟県,南魚沼市
54816,関山,ｾｷﾔﾏ,36.933,138.222,350,関山アメダス,新潟県,妙高市
54836,津南,ﾂﾅﾝ,36.997,138.683,452,津南アメダス,新潟県,中魚沼郡津南町
54841,湯沢,ﾕｻﾞﾜ,36.942,138.81,340,湯沢アメダス,新潟県,南魚沼郡湯沢町
54876,平岩,ﾋﾗｲﾜ,36.88,137.867,281,平岩アメダス,新潟県,糸魚川市
54892,樽本,ﾀﾙﾓﾄ,36.89,138.275,633,樽本アメダス,新潟県,妙高市
55022,朝日,ｱｻﾋ,36.937,137.563,43,朝日アメダス,富山県,下新川郡朝日町
55041,氷見,ﾋﾐ,36.825,136.968,1,氷見アメダス,富山県,氷見市
55056,魚津,ｳｵﾂﾞ,36.822,137.428,48,魚津アメダス,富山県,魚津市
55063,宇奈月,ｳﾅﾂﾞｷ,36.847,137.557,160,宇奈月アメダス,富山県,黒部市
55091,伏木,ﾌｼｷ,36.792,137.055,12,伏木特別地域気象観測所,富山県,高岡市
55102,富山,ﾄﾔﾏ,36.708,137.202,9,富山地方気象台,富山県,富山市
55141,砺波,ﾄﾅﾐ,36.61,136.955,69,砺波アメダス,富山県,砺波市
55151,秋ヶ島,ｱｷｶﾞｼﾏ,36.648,137.187,24,富山航空気象観測所,富山県,富山市
55156,大山,ｵｵﾔﾏ,36.608,137.283,128,大山アメダス,富山県,富山市
55166,上市,ｶﾐｲﾁ,36.67,137.423,296,上市アメダス,富山県,中新川郡上市
55191,南砺高宮,ﾅﾝﾄﾀｶﾐﾔ,36.545,136.872,91,南砺高宮アメダス,富山県,南砺市
55206,八尾,ﾔﾂｵ,36.57,137.158,124,八尾アメダス,富山県,富山市
55217,立山芦峅,ﾀﾃﾔﾏｱｼｸﾗ,36.577,137.385,379,立山芦峅アメダス,富山県,中新川郡立山町
55252,五箇山,ｺﾞｶﾔﾏ,36.43,136.942,357,五箇山アメダス,富山県,南砺市
55267,猪谷,ｲﾉﾀﾆ,36.473,137.237,215,猪谷アメダス,富山県,富山市
56036,珠洲,ｽｽﾞ,37.447,137.287,4,珠洲アメダス,石川県,珠洲市
56052,輪島,ﾜｼﾞﾏ,37.39,136.895,5,輪島特別地域気象観測所,石川県,輪島市
56081,門前,ﾓﾝｾﾞﾝ,37.262,136.728,11,門前アメダス,石川県,輪島市
56093,三井,ﾐｲ,37.293,136.962,219,能登航空気象観測所,石川県,輪島市
56116,志賀,ｼｶ,37.143,136.725,6,志賀アメダス,石川県,羽咋郡志賀町
56146,七尾,ﾅﾅｵ,37.03,136.992,58,七尾アメダス,石川県,七尾市
56176,羽咋,ﾊｸｲ,36.893,136.777,15,羽咋アメダス,石川県,羽咋市
56186,かほく,ｶﾎｸ,36.712,136.692,42,かほくアメダス,石川県,かほく市
56192,宝達志水,ﾎｳﾀﾞﾂｼﾐｽﾞ,36.788,136.768,90,宝達志水アメダス,石川県,羽咋郡宝達志水町
56227,金沢,ｶﾅｻﾞﾜ,36.588,136.633,6,金沢地方気象台,石川県,金沢市
56232,医王山,ｲｵｳｾﾞﾝ,36.52,136.745,420,医王山アメダス,石川県,金沢市
56276,小松,ｺﾏﾂ,36.382,136.435,3,小松アメダス,石川県,小松市
56286,白山河内,ﾊｸｻﾝｶﾜﾁ,36.397,136.62,136,白山河内アメダス,石川県,白山市
56301,加賀中津原,ｶｶﾞﾅｶﾂﾊﾗ,36.262,136.397,65,加賀中津原アメダス,石川県,加賀市
56346,白山白峰,ﾊｸｻﾝｼﾗﾐﾈ,36.18,136.625,470,白山白峰アメダス,石川県,白山市
56401,舳倉島,ﾍｸﾞﾗｼﾞﾏ,37.85,136.918,8,舳倉島アメダス,石川県,輪島市
57001,三国,ﾐｸﾆ,36.243,136.173,34,三国アメダス,福井県,坂井市
57026,春江,ﾊﾙｴ,36.142,136.223,5,福井航空気象観測所,福井県,坂井市
57051,越廼,ｺｼﾉ,36.012,135.99,30,越廼アメダス,福井県,福井市
57066,福井,ﾌｸｲ,36.055,136.222,9,福井地方気象台,福井県,福井市
57071,美山,ﾐﾔﾏ,35.998,136.358,70,美山アメダス,福井県,福井市
57082,勝山,ｶﾂﾔﾏ,36.038,136.522,196,勝山アメダス,福井県,勝山市
57106,武生,ﾀｹﾌ,35.905,136.173,32,武生アメダス,福井県,越前市
57121,大野,ｵｵﾉ,35.972,136.497,182,大野アメダス,福井県,大野市
57176,九頭竜,ｸｽﾞﾘｭｳ,35.908,136.668,436,九頭竜アメダス,福井県,大野市
57206,今庄,ｲﾏｼﾞｮｳ,35.767,136.2,128,今庄アメダス,福井県,南条郡南越前町
57248,敦賀,ﾂﾙｶﾞ,35.653,136.062,2,敦賀特別地域気象観測所,福井県,敦賀市
57286,美浜,ﾐﾊﾏ,35.6,135.917,10,美浜アメダス,福井県,三方郡美浜町
57311,大飯,ｵｵｲ,35.48,135.617,3,大飯アメダス,福井県,大飯郡おおい町
57317,小浜,ｵﾊﾞﾏ,35.483,135.782,10,小浜アメダス,福井県,小浜市
60026,柳ケ瀬,ﾔﾅｶﾞｾ,35.582,136.188,220,柳ケ瀬アメダス,滋賀県,長浜市
60051,今津,ｲﾏﾂﾞ,35.412,136.028,88,今津アメダス,滋賀県,高島市
60061,長浜,ﾅｶﾞﾊﾏ,35.423,136.242,95,長浜アメダス,滋賀県,長浜市
60081,朽木平良,ｸﾂｷﾍﾗ,35.308,135.83,380,朽木平良アメダス,滋賀県,高島市
60102,米原,ﾏｲﾊﾞﾗ,35.383,136.343,147,米原アメダス,滋賀県,米原市
60116,南小松,ﾐﾅﾐｺﾏﾂ,35.235,135.957,90,南小松アメダス,滋賀県,大津市
60131,彦根,ﾋｺﾈ,35.275,136.243,87,彦根地方気象台,滋賀県,彦根市
60161,近江八幡,ｵｳﾐﾊﾁﾏﾝ,35.127,136.092,90,近江八幡アメダス,滋賀県,近江八幡市
60196,東近江,ﾋｶﾞｼｵｳﾐ,35.062,136.19,128,東近江アメダス,滋賀県,東近江市
60216,大津,ｵｵﾂ,34.992,135.912,86,大津アメダス,滋賀県,大津市
60226,信楽,ｼｶﾞﾗｷ,34.913,136.08,265,信楽アメダス,滋賀県,甲賀市
60236,土山,ﾂﾁﾔﾏ,34.938,136.278,248,土山アメダス,滋賀県,甲賀市
61001,間人,ﾀｲｻﾞ,35.737,135.087,42,間人アメダス,京都府,京丹後市
61031,峰山,ﾐﾈﾔﾏ,35.618,135.072,23,峰山アメダス,京都府,京丹後市
61076,宮津,ﾐﾔﾂﾞ,35.55,135.235,2,宮津アメダス,京都府,宮津市
61096,坂浦,ｻｶｳﾗ,35.418,135.087,223,坂浦アメダス,京都府,福知山市
61111,舞鶴,ﾏｲﾂﾞﾙ,35.45,135.317,2,舞鶴特別地域気象観測所,京都府,舞鶴市
61151,睦寄,ﾑﾂﾖﾘ,35.382,135.453,175,睦寄アメダス,京都府,綾部市
61187,福知山,ﾌｸﾁﾔﾏ,35.312,135.113,17,福知山アメダス,京都府,福知山市
61192,三和,ﾐﾜ,35.217,135.232,105,三和アメダス,京都府,福知山市
61196,綾部山家,ｱﾔﾍﾞﾔﾏｶﾞ,35.297,135.315,87,綾部山家アメダス,京都府,綾部市
61201,本庄,ﾎﾝｼﾞｮｳ,35.26,135.395,95,本庄アメダス,京都府,船井郡京丹波町
61206,美山,ﾐﾔﾏ,35.275,135.55,200,美山アメダス,京都府,南丹市
61241,須知,ｼｭｳﾁ,35.177,135.42,150,須知アメダス,京都府,船井郡京丹波町
61242,園部,ｿﾉﾍﾞ,35.108,135.455,134,園部アメダス,京都府,南丹市
61251,京北,ｹｲﾎｸ,35.182,135.662,260,京北アメダス,京都府,京都市
61286,京都,ｷｮｳﾄ,35.013,135.732,41,京都地方気象台,京都府,京都市
61306,長岡京,ﾅｶﾞｵｶｷｮｳ,34.93,135.678,71,長岡京アメダス,京都府,長岡京市
61326,京田辺,ｷｮｳﾀﾅﾍﾞ,34.83,135.76,20,京田辺アメダス,京都府,京田辺市
62016,能勢,ﾉｾ,34.948,135.455,235,能勢アメダス,大阪府,豊能郡能勢町
62037,茨木,ｲﾊﾞﾗｷ,34.86,135.56,78,茨木アメダス,大阪府,茨木市
62046,枚方,ﾋﾗｶﾀ,34.808,135.672,26,枚方アメダス,大阪府,枚方市
62051,豊中,ﾄﾖﾅｶ,34.783,135.438,12,大阪航空気象観測所,大阪府,豊中市
62078,大阪,ｵｵｻｶ,34.682,135.518,23,大阪管区気象台,大阪府,大阪市
62081,生駒山,ｲｺﾏﾔﾏ,34.675,135.677,626,生駒山アメダス,大阪府,東大阪市
62091,堺,ｻｶｲ,34.555,135.485,20,堺アメダス,大阪府,堺市
62096,八尾,ﾔｵ,34.597,135.6,10,八尾航空気象観測所,大阪府,八尾市
62101,関空島,ｶﾝｸｳｼﾞﾏ,34.433,135.232,5,関西航空地方気象台,大阪府,泉南郡田尻町
62111,河内長野,ｶﾜﾁﾅｶﾞﾉ,34.423,135.543,160,河内長野アメダス,大阪府,河内長野市
62131,熊取,ｸﾏﾄﾘ,34.385,135.35,68,熊取アメダス,大阪府,泉南郡熊取町
63016,香住,ｶｽﾐ,35.625,134.627,5,香住アメダス,兵庫県,美方郡香美町
63032,温泉,ｵﾝｾﾝ,35.528,134.48,233,温泉アメダス,兵庫県,美方郡新温泉町
63051,豊岡,ﾄﾖｵｶ,35.535,134.822,3,豊岡特別地域気象観測所,兵庫県,豊岡市
63071,兎和野高原,ｳﾜﾉｺｳｹﾞﾝ,35.432,134.583,540,兎和野高原アメダス,兵庫県,美方郡香美町
63111,大屋,ｵｵﾔ,35.332,134.665,150,大屋アメダス,兵庫県,養父市
63116,八鹿,ﾖｳｶ,35.398,134.74,183,八鹿アメダス,兵庫県,養父市
63121,和田山,ﾜﾀﾞﾔﾏ,35.323,134.848,80,和田山アメダス,兵庫県,朝来市
63201,生野,ｲｸﾉ,35.167,134.792,320,生野アメダス,兵庫県,朝来市
63216,柏原,ｶｲﾊﾞﾗ,35.137,135.065,98,柏原アメダス,兵庫県,丹波市
63241,佐用,ｻﾖｳ,35.017,134.368,120,佐用アメダス,兵庫県,佐用郡佐用町
63251,一宮,ｲﾁﾉﾐﾔ,35.097,134.585,195,一宮アメダス,兵庫県,宍粟市
63321,福崎,ﾌｸｻｷ,34.95,134.748,72,福崎アメダス,兵庫県,神崎郡福崎町
63331,西脇,ﾆｼﾜｷ,34.998,134.997,72,西脇アメダス,兵庫県,西脇市
63346,後川,ｼﾂｶﾜ,35.025,135.293,330,後川アメダス,兵庫県,丹波篠山市
63366,上郡,ｶﾐｺﾞｵﾘ,34.858,134.373,20,上郡アメダス,兵庫県,赤穂郡上郡町
63383,姫路,ﾋﾒｼﾞ,34.838,134.67,38,姫路特別地域気象観測所,兵庫県,姫路市
63411,三田,ｻﾝﾀﾞ,34.895,135.212,150,三田アメダス,兵庫県,三田市
63461,三木,ﾐｷ,34.777,135.013,145,三木アメダス,兵庫県,三木市
63477,西宮,ﾆｼﾉﾐﾔ,34.75,135.335,38,西宮アメダス,兵庫県,西宮市
63491,家島,ｲｴｼﾏ,34.672,134.527,88,家島アメダス,兵庫県,姫路市
63496,明石,ｱｶｼ,34.687,134.877,3,明石アメダス,兵庫県,明石市
63517,神戸空港,ｺｳﾍﾞｸｳｺｳ,34.632,135.223,5,神戸航空気象観測所,兵庫県,神戸市
63518,神戸,ｺｳﾍﾞ,34.697,135.212,5,神戸地方気象台,兵庫県,神戸市
63551,郡家,ｸﾞﾝｹﾞ,34.467,134.848,5,郡家アメダス,兵庫県,淡路市
63571,洲本,ｽﾓﾄ,34.31,134.848,69,洲本特別地域気象観測所,兵庫県,洲本市
63588,南淡,ﾅﾝﾀﾞﾝ,34.218,134.72,5,南淡アメダス,兵庫県,南あわじ市
64036,奈良,ﾅﾗ,34.673,135.837,102,奈良地方気象台,奈良県,奈良市
64041,針,ﾊﾘ,34.605,135.952,468,針アメダス,奈良県,奈良市
64056,田原本,ﾀﾜﾗﾓﾄ,34.555,135.785,50,田原本アメダス,奈良県,磯城郡田原本町
64076,曽爾,ｿﾆ,34.522,136.158,610,曽爾アメダス,奈良県,宇陀郡曽爾村
64091,葛城,ｶﾂﾗｷﾞ,34.488,135.703,141,葛城アメダス,奈良県,葛城市
64101,大宇陀,ｵｵｳﾀﾞ,34.488,135.932,349,大宇陀アメダス,奈良県,宇陀市
64127,五條,ｺﾞｼﾞｮｳ,34.38,135.73,190,五條アメダス,奈良県,五條市
64136,吉野,ﾖｼﾉ,34.378,135.9,188,吉野アメダス,奈良県,吉野郡吉野町
64161,天川,ﾃﾝｶﾜ,34.27,135.883,840,天川アメダス,奈良県,吉野郡天川村
64206,上北山,ｶﾐｷﾀﾔﾏ,34.137,136.005,334,上北山アメダス,奈良県,吉野郡上北山村
64227,風屋,ｶｾﾞﾔ,34.045,135.787,301,風屋アメダス,奈良県,吉野郡十津川村
64236,下北山,ｼﾓｷﾀﾔﾏ,34.003,135.967,249,下北山アメダス,奈良県,吉野郡下北山村
64262,葛川,ｸｽﾞｶﾜ,33.953,135.857,396,葛川アメダス,奈良県,吉野郡十津川村
65021,葛城山,ｶﾂﾗｷﾞｻﾝ,34.347,135.437,840,葛城山アメダス,和歌山県,紀の川市
65026,かつらぎ,ｶﾂﾗｷﾞ,34.31,135.528,142,かつらぎアメダス,和歌山県,伊都郡かつらぎ町
65036,友ケ島,ﾄﾓｶﾞｼﾏ,34.28,134.998,44,友ケ島アメダス,和歌山県,和歌山市
65042,和歌山,ﾜｶﾔﾏ,34.228,135.163,14,和歌山地方気象台,和歌山県,和歌山市
65061,高野山,ｺｳﾔｻﾝ,34.222,135.59,801,高野山アメダス,和歌山県,伊都郡高野町
65106,湯浅,ﾕｱｻ,34.035,135.182,8,湯浅アメダス,和歌山県,有田郡湯浅町
65121,清水,ｼﾐｽﾞ,34.087,135.425,240,清水アメダス,和歌山県,有田郡有田川町
65127,護摩壇山,ｺﾞﾏﾀﾞﾝｻﾞﾝ,34.04,135.567,1130,護摩壇山アメダス,和歌山県,田辺市
65162,龍神,ﾘｭｳｼﾞﾝ,33.945,135.557,410,龍神アメダス,和歌山県,田辺市
65201,川辺,ｶﾜﾍﾞ,33.893,135.217,84,川辺アメダス,和歌山県,日高郡日高川町
65226,本宮,ﾎﾝｸﾞｳ,33.837,135.773,60,本宮アメダス,和歌山県,田辺市
65256,栗栖川,ｸﾘｽｶﾞﾜ,33.792,135.513,160,栗栖川アメダス,和歌山県,田辺市
65276,新宮,ｼﾝｸﾞｳ,33.687,135.97,18,新宮アメダス,和歌山県,新宮市
65288,南紀白浜,ﾅﾝｷｼﾗﾊﾏ,33.662,135.363,89,南紀白浜航空気象観測所,和歌山県,西牟婁郡白浜町
65306,西川,ﾆｼｶﾜ,33.638,135.71,150,西川アメダス,和歌山県,東牟婁郡古座川町
65311,色川,ｲﾛｶﾜ,33.675,135.848,275,色川アメダス,和歌山県,東牟婁郡那智勝浦町
65321,日置川,ﾋｷｶﾞﾜ,33.605,135.48,17,日置川アメダス,和歌山県,西牟婁郡白浜町
65356,潮岬,ｼｵﾉﾐｻｷ,33.45,135.757,68,潮岬特別地域気象観測所,和歌山県,東牟婁郡串本町
66046,上長田,ｶﾐﾅｶﾞﾀ,35.297,133.725,430,上長田アメダス,岡山県,真庭市
66056,恩原,ｵﾝﾊﾞﾗ,35.3,133.987,734,恩原アメダス,岡山県,苫田郡鏡野町
66091,千屋,ﾁﾔ,35.103,133.435,525,千屋アメダス,岡山県,新見市
66112,富,ﾄﾐ,35.178,133.805,480,富アメダス,岡山県,苫田郡鏡野町
66127,奈義,ﾅｷﾞ,35.112,134.17,212,奈義アメダス,岡山県,勝田郡奈義町
66136,今岡,ｲﾏｵｶ,35.098,134.325,207,今岡アメダス,岡山県,美作市
66171,久世,ｸｾ,35.068,133.753,144,久世アメダス,岡山県,真庭市
66186,津山,ﾂﾔﾏ,35.063,134.008,146,津山特別地域気象観測所,岡山県,津山市
66221,新見,ﾆｲﾐ,34.943,133.518,393,新見アメダス,岡山県,新見市
66226,下呰部,ｼﾓｱｻﾞｴ,34.965,133.628,180,下呰部アメダス,岡山県,真庭市
66237,旭西,ｱｻﾋﾆｼ,34.962,133.812,230,旭西アメダス,岡山県,久米郡美咲町
66251,赤磐,ｱｶｲﾜ,34.918,134.082,56,赤磐アメダス,岡山県,赤磐市
66276,陣山,ｼﾞﾝﾔﾏ,34.828,133.523,529,陣山アメダス,岡山県,高梁市
66287,吉備中央,ｷﾋﾞﾁｭｳｵｳ,34.817,133.705,340,吉備中央アメダス,岡山県,加賀郡吉備中央町
66296,福渡,ﾌｸﾜﾀﾘ,34.867,133.903,63,福渡アメダス,岡山県,岡山市
66306,和気,ﾜｹ,34.815,134.183,35,和気アメダス,岡山県,和気郡和気町
66336,高梁,ﾀｶﾊｼ,34.792,133.61,60,高梁アメダス,岡山県,高梁市
66346,日応寺,ﾆﾁｵｳｼﾞ,34.757,133.855,239,岡山航空気象観測所,岡山県,岡山市
66381,佐屋,ｻﾔ,34.685,133.445,390,佐屋アメダス,岡山県,井原市
66391,矢掛,ﾔｶｹﾞ,34.617,133.618,18,矢掛アメダス,岡山県,小田郡矢掛町
66408,岡山,ｵｶﾔﾏ,34.685,133.925,5,岡山地方気象台,岡山県,岡山市
66421,虫明,ﾑｼｱｹﾞ,34.682,134.207,10,虫明アメダス,岡山県,瀬戸内市
66446,倉敷,ｸﾗｼｷ,34.59,133.768,3,倉敷アメダス,岡山県,倉敷市
66481,笠岡,ｶｻｵｶ,34.502,133.495,0,笠岡アメダス,岡山県,笠岡市
66501,玉野,ﾀﾏﾉ,34.487,133.95,2,玉野アメダス,岡山県,玉野市
67016,高野,ﾀｶﾉ,35.033,132.902,570,高野アメダス,広島県,庄原市
67026,道後山,ﾄﾞｳｺﾞﾔﾏ,35.057,133.188,729,道後山アメダス,広島県,庄原市
67052,君田,ｷﾐﾀ,34.928,132.83,304,君田アメダス,広島県,三次市
67106,三次,ﾐﾖｼ,34.812,132.85,159,三次アメダス,広島県,三次市
67116,庄原,ｼｮｳﾊﾞﾗ,34.86,133.023,300,庄原アメダス,広島県,庄原市
67126,東城,ﾄｳｼﾞｮｳ,34.895,133.277,310,東城アメダス,広島県,庄原市
67136,八幡,ﾔﾜﾀ,34.708,132.173,774,八幡アメダス,広島県,山県郡北広島町
67151,大朝,ｵｵｱｻ,34.768,132.463,399,大朝アメダス,広島県,山県郡北広島町
67161,美土里,ﾐﾄﾞﾘ,34.722,132.655,318,美土里アメダス,広島県,安芸高田市
67191,油木,ﾕｷ,34.763,133.278,510,油木アメダス,広島県,神石郡神石高原町
67211,王泊,ｵｵﾄﾞﾏﾘ,34.698,132.312,525,王泊アメダス,広島県,山県郡北広島町
67212,加計,ｶｹ,34.61,132.32,210,加計アメダス,広島県,山県郡安芸太田町
67217,都志見,ﾂｼﾐ,34.647,132.443,400,都志見アメダス,広島県,山県郡北広島町
67231,甲田,ｺｳﾀﾞ,34.695,132.76,185,甲田アメダス,広島県,安芸高田市
67251,上下,ｼﾞｮｳｹﾞ,34.693,133.117,384,上下アメダス,広島県,府中市
67271,内黒山,ｳﾁｸﾞﾛﾔﾏ,34.597,132.177,987,内黒山アメダス,広島県,山県郡安芸太田町
67292,三入,ﾐｲﾘ,34.545,132.53,70,三入アメダス,広島県,広島市
67306,安宿,ｱｽｶ,34.567,132.838,363,安宿アメダス,広島県,東広島市
67316,世羅,ｾﾗ,34.583,133.05,350,世羅アメダス,広島県,世羅郡世羅町
67326,府中,ﾌﾁｭｳ,34.562,133.232,70,府中アメダス,広島県,府中市
67351,佐伯湯来,ｻｴｷﾕｷ,34.498,132.29,206,佐伯湯来アメダス,広島県,広島市
67371,志和,ｼﾜ,34.498,132.66,215,志和アメダス,広島県,東広島市
67376,東広島,ﾋｶﾞｼﾋﾛｼﾏ,34.417,132.7,224,東広島アメダス,広島県,東広島市
67386,本郷,ﾎﾝｺﾞｳ,34.435,132.918,331,広島航空気象観測所,広島県,三原市
67401,福山,ﾌｸﾔﾏ,34.447,133.247,2,福山特別地域気象観測所,広島県,福山市
67421,廿日市津田,ﾊﾂｶｲﾁﾂﾀ,34.365,132.19,317,廿日市津田アメダス,広島県,廿日市
67437,広島,ﾋﾛｼﾏ,34.398,132.462,4,広島地方気象台,広島県,広島市
67461,竹原,ﾀｹﾊﾗ,34.33,132.982,5,竹原アメダス,広島県,竹原市
67471,生口島,ｲｸﾁｼﾞﾏ,34.278,133.123,3,生口島アメダス,広島県,尾道市
67496,大竹,ｵｵﾀｹ,34.222,132.22,1,大竹アメダス,広島県,大竹市
67511,呉,ｸﾚ,34.24,132.55,4,呉特別地域気象観測所,広島県,呉市
67566,倉橋,ｸﾗﾊｼ,34.092,132.488,3,倉橋アメダス,広島県,呉市
67576,呉市蒲刈,ｸﾚｼｶﾏｶﾞﾘ,34.165,132.748,48,呉市蒲刈アメダス,広島県,呉市
68022,西郷,ｻｲｺﾞｳ,36.203,133.333,27,西郷特別地域気象観測所,島根県,隠岐郡隠岐の島町
68046,西郷岬,ｻｲｺﾞｳﾐｻｷ,36.178,133.323,80,隠岐航空気象観測所,島根県,隠岐郡隠岐の島町
68056,海士,ｱﾏ,36.097,133.097,3,海士アメダス,島根県,隠岐郡海士町
68091,鹿島,ｶｼﾏ,35.52,132.983,3,鹿島アメダス,島根県,松江市
68121,斐川,ﾋｶﾜ,35.413,132.89,2,出雲航空気象観測所,島根県,出雲市
68132,松江,ﾏﾂｴ,35.457,133.065,17,松江地方気象台,島根県,松江市
68156,出雲,ｲｽﾞﾓ,35.332,132.73,20,出雲アメダス,島根県,出雲市
68166,大東,ﾀﾞｲﾄｳ,35.318,132.965,56,大東アメダス,島根県,雲南市
68181,伯太,ﾊｸﾀ,35.35,133.273,23,伯太アメダス,島根県,安来市
68206,佐田,ｻﾀﾞ,35.222,132.723,100,佐田アメダス,島根県,出雲市
68246,大田,ｵｵﾀﾞ,35.19,132.497,30,大田アメダス,島根県,大田市
68261,掛合,ｶｹﾔ,35.197,132.815,215,掛合アメダス,島根県,雲南市
68276,横田,ﾖｺﾀ,35.173,133.103,369,横田アメダス,島根県,仁多郡奥出雲町
68286,福光,ﾌｸﾐﾂ,35.07,132.333,8,福光アメダス,島根県,大田市
68306,赤名,ｱｶﾅ,35.002,132.712,444,赤名アメダス,島根県,飯石郡飯南町
68346,桜江,ｻｸﾗｴ,34.953,132.333,32,桜江アメダス,島根県,江津市
68351,川本,ｶﾜﾓﾄ,34.977,132.492,132,川本アメダス,島根県,邑智郡川本町
68376,浜田,ﾊﾏﾀﾞ,34.897,132.07,19,浜田特別地域気象観測所,島根県,浜田市
68401,瑞穂,ﾐｽﾞﾎ,34.853,132.53,327,瑞穂アメダス,島根県,邑智郡邑南町
68421,三隅,ﾐｽﾐ,34.795,131.948,9,三隅アメダス,島根県,浜田市
68431,弥栄,ﾔｻｶ,34.777,132.108,380,弥栄アメダス,島根県,浜田市
68436,波佐,ﾊｻﾞ,34.78,132.197,370,波佐アメダス,島根県,浜田市
68456,高津,ﾀｶﾂ,34.675,131.79,54,石見航空気象観測所,島根県,益田市
68462,益田,ﾏｽﾀﾞ,34.687,131.85,22,益田アメダス,島根県,益田市
68501,匹見,ﾋｷﾐ,34.572,132.017,259,匹見アメダス,島根県,益田市
68516,津和野,ﾂﾜﾉ,34.462,131.77,165,津和野アメダス,島根県,鹿足郡津和野町
68541,吉賀,ﾖｼｶ,34.392,131.893,250,吉賀アメダス,島根県,鹿足郡吉賀町七日市
69006,境,ｻｶｲ,35.543,133.235,2,境特別地域気象観測所,鳥取県,境港市
69021,塩津,ｼｵﾂ,35.523,133.567,15,塩津アメダス,鳥取県,西伯郡大山町
69041,青谷,ｱｵﾔ,35.52,133.997,13,青谷アメダス,鳥取県,鳥取市
69052,湖山,ｺﾔﾏ,35.53,134.165,15,鳥取航空気象観測所,鳥取県,鳥取市
69061,岩井,ｲﾜｲ,35.558,134.36,19,岩井アメダス,鳥取県,岩美郡岩美町
69076,米子,ﾖﾅｺﾞ,35.433,133.338,7,米子特別地域気象観測所,鳥取県,米子市
69101,倉吉,ｸﾗﾖｼ,35.473,133.838,8,倉吉アメダス,鳥取県,倉吉市
69111,鹿野,ｼｶﾉ,35.413,134.017,210,鹿野アメダス,鳥取県,鳥取市
69122,鳥取,ﾄｯﾄﾘ,35.487,134.238,7,鳥取地方気象台,鳥取県,鳥取市
69152,大山,ﾀﾞｲｾﾝ,35.393,133.537,875,大山アメダス,鳥取県,西伯郡大山町
69161,関金,ｾｷｶﾞﾈ,35.378,133.757,150,関金アメダス,鳥取県,倉吉市
69181,佐治,ｻｼﾞ,35.328,134.113,210,佐治アメダス,鳥取県,鳥取市
69196,若桜,ﾜｶｻ,35.333,134.405,231,若桜アメダス,鳥取県,八頭郡若桜町
69222,江尾,ｴﾋﾞ,35.288,133.483,155,江尾アメダス,鳥取県,日野郡江府町
69246,智頭,ﾁｽﾞ,35.263,134.24,182,智頭アメダス,鳥取県,八頭郡智頭町
69271,茶屋,ﾁｬﾔ,35.187,133.23,490,茶屋アメダス,鳥取県,日野郡日南町
71066,池田,ｲｹﾀﾞ,34.023,133.795,214,池田アメダス,徳島県,三好市
71087,穴吹,ｱﾅﾌﾞｷ,34.04,134.157,160,穴吹アメダス,徳島県,美馬市
71106,徳島,ﾄｸｼﾏ,34.067,134.573,2,徳島地方気象台,徳島県,徳島市
71136,半田,ﾊﾝﾀﾞ,33.99,134.037,228,半田アメダス,徳島県,美馬郡つるぎ町
71191,京上,ｷｮｳｼﾞｮｳ,33.867,133.903,532,京上アメダス,徳島県,三好市
71211,福原旭,ﾌｸﾊﾗｱｻﾋ,33.878,134.388,290,福原旭アメダス,徳島県,勝浦郡上勝町
71231,蒲生田,ｶﾓﾀﾞ,33.837,134.742,10,蒲生田アメダス,徳島県,阿南市
71251,木頭,ｷﾄｳ,33.772,134.198,363,木頭アメダス,徳島県,那賀郡那賀町
71266,日和佐,ﾋﾜｻ,33.732,134.538,3,日和佐アメダス,徳島県,海部郡美波町
71291,海陽,ｶｲﾖｳ,33.612,134.355,5,海陽アメダス,徳島県,海部郡海陽町
72061,内海,ｳﾁﾉﾐ,34.472,134.273,20,内海アメダス,香川県,小豆郡小豆島町
72086,高松,ﾀｶﾏﾂ,34.318,134.053,9,高松地方気象台,香川県,高松市
72111,多度津,ﾀﾄﾞﾂ,34.275,133.752,4,多度津特別地域気象観測所,香川県,仲多度郡多度津町
72121,滝宮,ﾀｷﾉﾐﾔ,34.237,133.923,60,滝宮アメダス,香川県,綾歌郡綾川町
72126,香南,ｺｳﾅﾝ,34.213,134.015,185,高松航空気象観測所,香川県,高松市
72146,引田,ﾋｹﾀ,34.213,134.407,12,引田アメダス,香川県,東かがわ市
72161,財田,ｻｲﾀ,34.12,133.772,65,財田アメダス,香川県,三豊市
72176,竜王山,ﾘｭｳｵｳｻﾞﾝ,34.113,134.05,1040,竜王山アメダス,徳島県,徳島県美馬市
73001,大三島,ｵｵﾐｼﾏ,34.25,133.007,9,大三島アメダス,愛媛県,今治市
73071,玉川,ﾀﾏｶﾞﾜ,34.018,132.94,67,玉川アメダス,愛媛県,今治市
73076,今治,ｲﾏﾊﾞﾘ,34.053,132.975,27,今治アメダス,愛媛県,今治市
73126,西条,ｻｲｼﾞｮｳ,33.915,133.08,4,西条アメダス,愛媛県,西条市
73141,新居浜,ﾆｲﾊﾏ,33.937,133.338,90,新居浜アメダス,愛媛県,新居浜市
73151,四国中央,ｼｺｸﾁｭｳｵｳ,33.982,133.582,75,四国中央アメダス,愛媛県,四国中央市
73152,富郷,ﾄﾐｻﾄ,33.915,133.51,310,富郷アメダス,愛媛県,四国中央市
73166,松山,ﾏﾂﾔﾏ,33.843,132.777,32,松山地方気象台,愛媛県,松山市
73168,松山南吉田,ﾏﾂﾔﾏﾐﾅﾐﾖｼﾀﾞ,33.827,132.698,4,松山航空気象観測所,愛媛県,松山市
73231,上林,ｶﾐﾊﾔｼ,33.738,132.89,460,上林アメダス,愛媛県,東温市
73247,成就社,ｼﾞｮｳｼﾞｭｼｬ,33.795,133.132,1280,成就社アメダス,愛媛県,西条市
73256,長浜,ﾅｶﾞﾊﾏ,33.617,132.48,4,長浜アメダス,愛媛県,大洲市
73271,中山,ﾅｶﾔﾏ,33.638,132.708,163,中山アメダス,愛媛県,伊予市
73276,久万,ｸﾏ,33.663,132.895,511,久万アメダス,愛媛県,上浮穴郡久万高原町
73306,大洲,ｵｵｽﾞ,33.508,132.535,20,大洲アメダス,愛媛県,大洲市
73321,獅子越峠,ｼｼｺﾞｴﾄｳｹﾞ,33.543,132.832,1000,獅子越峠アメダス,愛媛県,喜多郡内子町
73341,瀬戸,ｾﾄ,33.447,132.257,143,瀬戸アメダス,愛媛県,西宇和郡伊方町
73351,八幡浜,ﾔﾜﾀﾊﾏ,33.448,132.433,8,八幡浜アメダス,愛媛県,八幡浜市
73406,宇和,ｳﾜ,33.367,132.503,200,宇和アメダス,愛媛県,西予市
73442,宇和島,ｳﾜｼﾞﾏ,33.227,132.552,2,宇和島特別地域気象観測所,愛媛県,宇和島市
73446,近永,ﾁｶﾅｶﾞ,33.253,132.675,129,近永アメダス,愛媛県,北宇和郡鬼北町
73516,御荘,ﾐｼｮｳ,32.963,132.57,12,御荘アメダス,愛媛県,南宇和郡愛南町
74056,本川,ﾎﾝｶﾞﾜ,33.765,133.338,605,本川アメダス,高知県,吾川郡いの町
74071,本山,ﾓﾄﾔﾏ,33.753,133.575,252,本山アメダス,高知県,長岡郡本山町
74101,池川,ｲｹｶﾞﾜ,33.607,133.17,141,池川アメダス,高知県,吾川郡仁淀川町
74126,繁藤,ｼｹﾞﾄｳ,33.678,133.685,346,繁藤アメダス,高知県,香美市
74136,大栃,ｵｵﾄﾞﾁ,33.698,133.875,210,大栃アメダス,高知県,香美市
74151,魚梁瀬,ﾔﾅｾ,33.615,134.108,450,魚梁瀬アメダス,高知県,安芸郡馬路村
74166,佐川,ｻｶﾜ,33.512,133.272,80,佐川アメダス,高知県,高岡郡佐川町
74182,高知,ｺｳﾁ,33.567,133.548,1,高知地方気象台,高知県,高知市
74187,後免,ｺﾞﾒﾝ,33.59,133.643,12,後免アメダス,高知県,南国市
74188,南国日章,ﾅﾝｺｸﾆｯｼｮｳ,33.545,133.668,9,高知航空気象観測所,高知県,南国市
74237,船戸,ﾌﾅﾄ,33.417,133.088,425,船戸アメダス,高知県,高岡郡津野町
74238,鳥形山,ﾄﾘｶﾞﾀﾔﾏ,33.48,133.083,835,鳥形山アメダス,高知県,吾川郡仁淀川町
74271,安芸,ｱｷ,33.488,133.933,6,安芸アメダス,高知県,安芸市
74276,田野,ﾀﾉ,33.427,134.007,17,田野アメダス,高知県,安芸郡田野町
74296,梼原,ﾕｽﾊﾗ,33.39,132.922,415,梼原アメダス,高知県,高岡郡梼原町
74311,須崎,ｽｻｷ,33.385,133.277,4,須崎アメダス,高知県,須崎市
74336,佐喜浜,ｻｷﾊﾏ,33.412,134.198,26,佐喜浜アメダス,高知県,室戸市
74361,窪川,ｸﾎﾞｶﾜ,33.207,133.128,205,窪川アメダス,高知県,高岡郡四万十町
74372,室戸岬,ﾑﾛﾄﾐｻｷ,33.252,134.177,185,室戸岬特別地域気象観測所,高知県,室戸市
74381,江川崎,ｴｶﾜｻｷ,33.17,132.792,72,江川崎アメダス,高知県,四万十市
74391,大正,ﾀｲｼｮｳ,33.193,132.972,150,大正アメダス,高知県,高岡郡四万十町
74436,佐賀,ｻｶﾞ,33.078,133.102,3,佐賀アメダス,高知県,幡多郡黒潮町
74447,宿毛,ｽｸﾓ,32.92,132.695,2,宿毛特別地域気象観測所,高知県,宿毛市
74456,中村,ﾅｶﾑﾗ,32.99,132.92,8,中村アメダス,高知県,四万十市
74506,三崎,ﾐｻｷ,32.795,132.872,9,三崎アメダス,高知県,土佐清水市
74516,清水,ｼﾐｽﾞ,32.722,133.01,31,清水特別地域気象観測所,高知県,土佐清水市
81011,須佐,ｽｻ,34.615,131.623,50,須佐アメダス,山口県,萩市
81071,萩,ﾊｷﾞ,34.41,131.405,2,萩特別地域気象観測所,山口県,萩市
81116,油谷,ﾕﾔ,34.37,131.055,20,油谷アメダス,山口県,長門市
81146,篠生,ｼﾉﾌﾞ,34.338,131.627,264,篠生アメダス,山口県,山口市
81151,徳佐,ﾄｸｻ,34.398,131.725,310,徳佐アメダス,山口県,山口市
81167,羅漢山,ﾗｶﾝｻﾞﾝ,34.35,132.063,945,羅漢山アメダス,山口県,岩国市
81196,秋吉台,ｱｷﾖｼﾀﾞｲ,34.235,131.307,240,秋吉台アメダス,山口県,美祢市
81228,鹿野,ｶﾉ,34.225,131.815,368,鹿野アメダス,山口県,周南市
81231,広瀬,ﾋﾛｾ,34.262,131.952,97,広瀬アメダス,山口県,岩国市
81266,豊田,ﾄﾖﾀ,34.187,131.077,40,豊田アメダス,山口県,下関市
81271,東厚保,ﾋｶﾞｼｱﾂ,34.118,131.182,56,東厚保アメダス,山口県,美祢市
81286,山口,ﾔﾏｸﾞﾁ,34.162,131.462,18,山口特別地域気象観測所,山口県,山口市
81301,和田,ﾜﾀﾞ,34.17,131.753,154,和田アメダス,山口県,周南市
81321,岩国,ｲﾜｸﾆ,34.155,132.178,41,岩国アメダス,山口県,岩国市
81371,防府,ﾎｳﾌ,34.04,131.533,4,防府アメダス,山口県,防府市
81386,下松,ｸﾀﾞﾏﾂ,34.01,131.872,27,下松アメダス,山口県,下松市
81397,玖珂,ｸｶﾞ,34.095,132.075,68,玖珂アメダス,山口県,岩国市
81428,下関,ｼﾓﾉｾｷ,33.948,130.925,3,下関地方気象台,山口県,下関市
81436,宇部,ｳﾍﾞ,33.93,131.278,5,山口宇部航空気象観測所,山口県,宇部市
81481,柳井,ﾔﾅｲ,33.958,132.113,3,柳井アメダス,山口県,柳井市
81486,安下庄,ｱｹﾞﾉｼｮｳ,33.903,132.293,5,安下庄アメダス,山口県,大島郡周防大島町
82036,小呂島,ｵﾛﾉｼﾏ,33.863,130.035,49,小呂島アメダス,福岡県,福岡市
82046,宗像,ﾑﾅｶﾀ,33.808,130.538,7,宗像アメダス,福岡県,宗像市
82056,八幡,ﾔﾊﾀ,33.852,130.743,20,八幡アメダス,福岡県,北九州市
82068,空港北町,ｸｳｺｳｷﾀﾏﾁ,33.845,131.035,7,北九州航空気象観測所,福岡県,北九州市
82097,東谷,ﾋｶﾞｼﾀﾆ,33.778,130.865,55,東谷アメダス,福岡県,北九州市
82101,行橋,ﾕｸﾊｼ,33.713,130.975,9,行橋アメダス,福岡県,行橋市
82136,飯塚,ｲｲﾂﾞｶ,33.652,130.693,37,飯塚特別地域気象観測所,福岡県,飯塚市
82171,前原,ﾏｴﾊﾞﾙ,33.56,130.19,5,前原アメダス,福岡県,糸島市
82182,福岡,ﾌｸｵｶ,33.582,130.375,3,福岡管区気象台,福岡県,福岡市
82186,博多,ﾊｶﾀ,33.583,130.452,9,福岡航空地方気象台,福岡県,福岡市
82191,太宰府,ﾀﾞｻﾞｲﾌ,33.497,130.49,52,太宰府アメダス,福岡県,太宰府市
82206,添田,ｿｴﾀﾞ,33.558,130.855,92,添田アメダス,福岡県,田川郡添田町
82241,早良脇山,ｻﾜﾗﾜｷﾔﾏ,33.488,130.353,83,早良脇山アメダス,福岡県,福岡市
82261,朝倉,ｱｻｸﾗ,33.407,130.695,38,朝倉アメダス,福岡県,朝倉市
82272,英彦山,ﾋｺｻﾝ,33.488,130.923,823,英彦山アメダス,福岡県,田川郡添田町
82306,久留米,ｸﾙﾒ,33.303,130.493,7,久留米アメダス,福岡県,久留米市
82316,耳納山,ﾐﾉｳｻﾝ,33.292,130.625,607,耳納山アメダス,福岡県,久留米市
82317,黒木,ｸﾛｷﾞ,33.225,130.645,144,黒木アメダス,福岡県,八女市
82331,柳川,ﾔﾅｶﾞﾜ,33.16,130.403,7,柳川アメダス,福岡県,柳川市
82361,大牟田,ｵｵﾑﾀ,33.007,130.467,40,大牟田アメダス,福岡県,大牟田市
83021,国見,ｸﾆﾐ,33.678,131.575,53,国見アメダス,大分県,国東市
83051,中津,ﾅｶﾂ,33.587,131.245,12,中津アメダス,大分県,中津市
83061,豊後高田,ﾌﾞﾝｺﾞﾀｶﾀﾞ,33.57,131.433,5,豊後高田アメダス,大分県,豊後高田市
83096,耶馬渓,ﾔﾊﾞｹｲ,33.445,131.115,100,耶馬渓アメダス,大分県,中津市
83106,院内,ｲﾝﾅｲ,33.42,131.317,90,院内アメダス,大分県,宇佐市
83121,杵築,ｷﾂｷ,33.417,131.597,5,杵築アメダス,大分県,杵築市
83126,武蔵,ﾑｻｼ,33.478,131.737,5,大分航空気象観測所,大分県,国東市
83137,日田,ﾋﾀ,33.322,130.928,83,日田特別地域気象観測所,大分県,日田市
83191,玖珠,ｸｽ,33.292,131.155,331,玖珠アメダス,大分県,玖珠郡玖珠町
83201,湯布院,ﾕﾌｲﾝ,33.253,131.347,435,湯布院アメダス,大分県,由布市
83216,大分,ｵｵｲﾀ,33.235,131.618,5,大分地方気象台,大分県,大分市
83226,佐賀関,ｻｶﾞﾉｾｷ,33.248,131.865,1,佐賀関アメダス,大分県,大分市
83242,椿ヶ鼻,ﾂﾊﾞｷｶﾞﾊﾅ,33.19,130.915,843,椿ヶ鼻アメダス,大分県,日田市
83286,臼杵,ｳｽｷ,33.132,131.797,30,臼杵アメダス,大分県,臼杵市
83341,犬飼,ｲﾇｶｲ,33.065,131.632,121,犬飼アメダス,大分県,豊後大野市
83371,竹田,ﾀｹﾀ,32.973,131.398,261,竹田アメダス,大分県,竹田市
83401,佐伯,ｻｲｷ,32.95,131.902,2,佐伯アメダス,大分県,佐伯市
83431,宇目,ｳﾒ,32.845,131.675,200,宇目アメダス,大分県,佐伯市
83476,蒲江,ｶﾏｴ,32.795,131.923,2,蒲江アメダス,大分県,佐伯市
84012,鰐浦,ﾜﾆｳﾗ,34.698,129.445,63,鰐浦アメダス,長崎県,対馬市
84072,厳原,ｲﾂﾞﾊﾗ,34.197,129.292,5,厳原特別地域気象観測所,長崎県,対馬市
84076,美津島,ﾐﾂｼﾏ,34.285,129.33,63,対馬航空気象観測所,長崎県,対馬市
84121,芦辺,ｱｼﾍﾞ,33.8,129.722,97,芦辺アメダス,長崎県,壱岐市
84122,石田,ｲｼﾀﾞ,33.748,129.785,12,壱岐航空気象観測所,長崎県,壱岐市
84171,平戸,ﾋﾗﾄﾞ,33.36,129.55,58,平戸特別地域気象観測所,長崎県,平戸市
84183,松浦,ﾏﾂｳﾗ,33.342,129.712,14,松浦アメダス,長崎県,松浦市
84266,佐世保,ｻｾﾎﾞ,33.158,129.727,4,佐世保特別地域気象観測所,長崎県,佐世保市
84306,西海,ｻｲｶｲ,33.013,129.652,18,西海アメダス,長崎県,西海市
84341,有川,ｱﾘｶﾜ,32.982,129.118,11,有川アメダス,長崎県,南松浦郡新上五島町
84361,長浦岳,ﾅｶﾞｳﾗﾀﾞｹ,32.908,129.738,510,長浦岳アメダス,長崎県,長崎市
84371,大村,ｵｵﾑﾗ,32.917,129.913,3,長崎航空気象観測所,長崎県,大村市
84441,諫早,ｲｻﾊﾔ,32.843,130.025,15,諫早アメダス,長崎県,諫早市
84496,長崎,ﾅｶﾞｻｷ,32.733,129.867,27,長崎地方気象台,長崎県,長崎市
84519,雲仙岳,ｳﾝｾﾞﾝﾀﾞｹ,32.737,130.262,678,雲仙岳特別地域気象観測所,長崎県,雲仙市
84523,島原,ｼﾏﾊﾞﾗ,32.76,130.362,14,島原アメダス,長崎県,島原市
84536,福江,ﾌｸｴ,32.693,128.827,25,福江特別地域気象観測所,長崎県,五島市
84537,上大津,ｶﾐｵｵﾂﾞ,32.665,128.832,77,福江航空気象観測所,長崎県,五島市
84561,口之津,ｸﾁﾉﾂ,32.612,130.193,13,口之津アメダス,長崎県,南島原市
84597,脇岬,ﾜｷﾐｻｷ,32.582,129.777,4,脇岬アメダス,長崎県,長崎市
85033,唐津,ｶﾗﾂ,33.458,129.955,23,唐津アメダス,佐賀県,唐津市
85046,北山,ﾎｸｻﾞﾝ,33.413,130.22,339,北山アメダス,佐賀県,佐賀市
85106,鳥栖,ﾄｽ,33.385,130.517,25,鳥栖アメダス,佐賀県,鳥栖市
85116,伊万里,ｲﾏﾘ,33.267,129.878,25,伊万里アメダス,佐賀県,伊万里市
85142,佐賀,ｻｶﾞ,33.265,130.305,6,佐賀地方気象台,佐賀県,佐賀市
85161,嬉野,ｳﾚｼﾉ,33.117,129.995,81,嬉野アメダス,佐賀県,嬉野市
85166,白石,ｼﾛｲｼ,33.183,130.148,2,白石アメダス,佐賀県,杵島郡白石町
85176,川副,ｶﾜｿｴ,33.148,130.302,2,佐賀航空気象観測所,佐賀県,佐賀市
86006,鹿北,ｶﾎｸ,33.115,130.692,119,鹿北アメダス,熊本県,山鹿市
86066,南小国,ﾐﾅﾐｵｸﾞﾆ,33.103,131.067,448,南小国アメダス,熊本県,阿蘇郡南小国町
86086,岱明,ﾀｲﾒｲ,32.915,130.512,15,岱明アメダス,熊本県,玉名市
86101,菊池,ｷｸﾁ,32.945,130.782,83,菊池アメダス,熊本県,菊池市
86111,阿蘇乙姫,ｱｿｵﾄﾋﾒ,32.947,131.04,487,阿蘇乙姫アメダス,熊本県,阿蘇市
86141,熊本,ｸﾏﾓﾄ,32.813,130.707,38,熊本地方気象台,熊本県,熊本市
86146,益城,ﾏｼｷ,32.837,130.855,193,熊本航空気象観測所,熊本県,上益城郡益城町
86157,南阿蘇,ﾐﾅﾐｱｿ,32.832,131.013,394,南阿蘇アメダス,熊本県,阿蘇郡南阿蘇村
86161,高森,ﾀｶﾓﾘ,32.822,131.125,555,高森アメダス,熊本県,阿蘇郡高森町
86181,宇土,ｳﾄ,32.7,130.657,6,宇土アメダス,熊本県,宇土市
86197,山都,ﾔﾏﾄ,32.712,130.958,574,山都アメダス,熊本県,上益城郡山都町
86216,三角,ﾐｽﾐ,32.612,130.478,60,三角アメダス,熊本県,宇城市
86236,甲佐,ｺｳｻ,32.672,130.817,52,甲佐アメダス,熊本県,上益城郡甲佐町
86271,松島,ﾏﾂｼﾏ,32.515,130.447,2,松島アメダス,熊本県,上天草市
86316,本渡,ﾎﾝﾄﾞ,32.468,130.18,30,本渡アメダス,熊本県,天草市
86336,八代,ﾔﾂｼﾛ,32.473,130.607,8,八代アメダス,熊本県,八代市
86396,田浦,ﾀﾉｳﾗ,32.363,130.508,3,田浦アメダス,熊本県,葦北郡芦北町
86407,山江,ﾔﾏｴ,32.302,130.747,218,山江アメダス,熊本県,球磨郡山江村
86411,五木,ｲﾂｷ,32.395,130.827,310,五木アメダス,熊本県,球磨郡五木村
86451,水俣,ﾐﾅﾏﾀ,32.205,130.407,6,水俣アメダス,熊本県,水俣市
86461,一勝地,ｲｯｼｮｳﾁ,32.245,130.645,120,一勝地アメダス,熊本県,球磨郡球磨村
86467,人吉,ﾋﾄﾖｼ,32.217,130.755,146,人吉特別地域気象観測所,熊本県,人吉市
86477,上,ｳｴ,32.225,130.905,166,上アメダス,熊本県,球磨郡あさぎり町
86478,多良木,ﾀﾗｷﾞ,32.295,130.95,210,多良木アメダス,熊本県,球磨郡多良木町
86481,湯前横谷,ﾕﾉﾏｴﾖｺﾀﾆ,32.263,131.043,665,湯前横谷アメダス,熊本県,球磨郡湯前町
86491,牛深,ｳｼﾌﾞｶ,32.197,130.027,3,牛深特別地域気象観測所,熊本県,天草市
87041,高千穂,ﾀｶﾁﾎ,32.712,131.29,350,高千穂アメダス,宮崎県,西臼杵郡高千穂町
87066,古江,ﾌﾙｴ,32.712,131.82,14,古江アメダス,宮崎県,延岡市
87071,鞍岡,ｸﾗｵｶ,32.643,131.157,590,鞍岡アメダス,宮崎県,西臼杵郡五ヶ瀬町
87086,日之影,ﾋﾉｶｹﾞ,32.682,131.407,262,日之影アメダス,宮崎県,西臼杵郡日之影町
87127,諸塚,ﾓﾛﾂｶ,32.517,131.335,150,諸塚アメダス,宮崎県,東臼杵郡諸塚村
87136,北方,ｷﾀｶﾀ,32.562,131.525,30,北方アメダス,宮崎県,延岡市
87141,延岡,ﾉﾍﾞｵｶ,32.582,131.657,19,延岡特別地域気象観測所,宮崎県,延岡市
87157,椎葉,ｼｲﾊﾞ,32.475,131.103,517,椎葉アメダス,宮崎県,東臼杵郡椎葉村
87181,日向,ﾋｭｳｶﾞ,32.408,131.6,20,日向アメダス,宮崎県,日向市
87206,神門,ﾐｶﾄﾞ,32.385,131.332,250,神門アメダス,宮崎県,東臼杵郡美郷町
87231,西米良,ﾆｼﾒﾗ,32.24,131.152,260,西米良アメダス,宮崎県,児湯郡西米良村
87251,都農,ﾂﾉ,32.283,131.542,61,都農アメダス,宮崎県,児湯郡都農町
87293,高鍋,ﾀｶﾅﾍﾞ,32.123,131.475,57,高鍋アメダス,宮崎県,児湯郡高鍋町
87301,加久藤,ｶｸﾄｳ,32.047,130.81,228,加久藤アメダス,宮崎県,えびの市
87331,西都,ｻｲﾄ,32.063,131.413,8,西都アメダス,宮崎県,西都市
87346,えびの高原,ｴﾋﾞﾉｺｳｹﾞﾝ,31.945,130.84,1150,えびの高原アメダス,宮崎県,えびの市
87352,小林,ｺﾊﾞﾔｼ,32,130.953,276,小林アメダス,宮崎県,小林市
87361,野尻,ﾉｼﾞﾘ,31.957,131.157,182,野尻アメダス,宮崎県,小林市
87371,国富,ｸﾆﾄﾐ,32.007,131.297,66,国富アメダス,宮崎県,東諸県郡国富町
87376,宮崎,ﾐﾔｻﾞｷ,31.938,131.413,9,宮崎地方気象台,宮崎県,宮崎市
87406,田野,ﾀﾉ,31.843,131.308,134,田野アメダス,宮崎県,宮崎市
87412,赤江,ｱｶｴ,31.877,131.448,6,宮崎航空気象観測所,宮崎県,宮崎市
87426,都城,ﾐﾔｺﾉｼﾞｮｳ,31.73,131.082,154,都城特別地域気象観測所,宮崎県,都城市
87461,酒谷,ｻｶﾀﾆ,31.642,131.267,160,酒谷アメダス,宮崎県,日南市
87492,油津,ｱﾌﾞﾗﾂ,31.578,131.407,3,油津特別地域気象観測所,宮崎県,日南市
87501,串間,ｸｼﾏ,31.465,131.22,20,串間アメダス,宮崎県,串間市
88061,阿久根,ｱｸﾈ,32.027,130.2,40,阿久根特別地域気象観測所,鹿児島県,阿久根市
88066,出水,ｲｽﾞﾐ,32.093,130.352,11,出水アメダス,鹿児島県,出水市
88081,大口,ｵｵｸﾁ,32.047,130.627,175,大口アメダス,鹿児島県,伊佐市
88101,紫尾山,ｼﾋﾞｻﾝ,31.98,130.367,1060,紫尾山アメダス,鹿児島県,薩摩郡さつま町
88107,さつま柏原,ｻﾂﾏｶｼﾜﾊﾞﾙ,31.917,130.455,59,さつま柏原アメダス,鹿児島県,薩摩郡さつま町
88131,中甑,ﾅｶｺｼｷ,31.835,129.867,10,中甑アメダス,鹿児島県,薩摩川内市
88151,川内,ｾﾝﾀﾞｲ,31.833,130.315,5,川内アメダス,鹿児島県,薩摩川内市
88166,溝辺,ﾐｿﾞﾍﾞ,31.803,130.718,272,鹿児島航空気象観測所,鹿児島県,霧島市
88211,八重山,ﾔｴﾔﾏ,31.747,130.438,533,八重山アメダス,鹿児島県,薩摩川内市
88261,東市来,ﾋｶﾞｼｲﾁｷ,31.668,130.328,40,東市来アメダス,鹿児島県,日置市
88286,牧之原,ﾏｷﾉﾊﾗ,31.662,130.843,387,牧之原アメダス,鹿児島県,霧島市
88317,鹿児島,ｶｺﾞｼﾏ,31.555,130.547,4,鹿児島地方気象台,鹿児島県,鹿児島市
88331,輝北,ｷﾎｸ,31.588,130.855,360,輝北アメダス,鹿児島県,鹿屋市
88341,大隅,ｵｵｽﾐ,31.58,131.005,170,大隅アメダス,鹿児島県,曽於市
88371,加世田,ｶｾﾀﾞ,31.415,130.325,9,加世田アメダス,鹿児島県,南さつま市
88392,吉ケ別府,ﾖｼｶﾞﾍﾞｯﾌﾟ,31.458,130.862,89,吉ケ別府アメダス,鹿児島県,鹿屋市
88406,志布志,ｼﾌﾞｼ,31.478,131.095,70,志布志アメダス,鹿児島県,志布志市
88432,喜入,ｷｲﾚ,31.387,130.54,4,喜入アメダス,鹿児島県,鹿児島市
88442,鹿屋,ｶﾉﾔ,31.392,130.863,63,鹿屋アメダス,鹿児島県,鹿屋市
88447,肝付前田,ｷﾓﾂｷﾏｴﾀﾞ,31.34,130.938,31,肝付前田アメダス,鹿児島県,肝属郡肝付町
88466,枕崎,ﾏｸﾗｻﾞｷ,31.272,130.292,30,枕崎特別地域気象観測所,鹿児島県,枕崎市
88486,指宿,ｲﾌﾞｽｷ,31.25,130.637,5,指宿アメダス,鹿児島県,指宿市
88506,内之浦,ｳﾁﾉｳﾗ,31.277,131.055,8,内之浦アメダス,鹿児島県,肝属郡肝付町
88536,田代,ﾀｼﾛ,31.198,130.843,182,田代アメダス,鹿児島県,肝属郡錦江町
88551,佐多,ｻﾀ,31.093,130.69,27,佐多アメダス,鹿児島県,肝属郡南大隅町
88612,種子島,ﾀﾈｶﾞｼﾏ,30.72,130.982,25,種子島特別地域気象観測所,鹿児島県,西之表市
88621,中種子,ﾅｶﾀﾈ,30.605,130.992,234,種子島航空気象観測所,鹿児島県,熊毛郡中種子町
88666,上中,ｶﾐﾅｶ,30.407,130.902,150,上中アメダス,鹿児島県,熊毛郡南種子町
88686,屋久島,ﾔｸｼﾏ,30.385,130.658,37,屋久島特別地域気象観測所,鹿児島県,熊毛郡屋久島町
88706,尾之間,ｵﾉｱｲﾀﾞ,30.235,130.555,60,尾之間アメダス,鹿児島県,熊毛郡屋久島町
88736,中之島,ﾅｶﾉｼﾏ,29.84,129.867,220,中之島アメダス,鹿児島県,鹿児島郡十島村
88746,平島,ﾀｲﾗｼﾞﾏ,29.683,129.528,97,平島アメダス,鹿児島県,鹿児島郡十島村
88756,諏訪之瀬島,ｽﾜﾉｾｼﾞﾏ,29.61,129.705,111,諏訪之瀬島アメダス,鹿児島県,鹿児島郡十島村
88776,小宝島,ｺﾀﾞｶﾗｼﾞﾏ,29.225,129.328,10,小宝島アメダス,鹿児島県,鹿児島郡十島村
88781,宝島,ﾀｶﾗｼﾞﾏ,29.152,129.202,33,宝島アメダス,鹿児島県,鹿児島郡十島村
88821,笠利,ｶｻﾘ,28.43,129.712,4,奄美航空気象観測所,鹿児島県,奄美市
88837,名瀬,ﾅｾﾞ,28.385,129.493,3,名瀬測候所,鹿児島県,奄美市
88851,喜界島,ｷｶｲｼﾞﾏ,28.32,129.927,5,喜界航空気象観測所,鹿児島県,大島郡喜界町
88901,古仁屋,ｺﾆﾔ,28.143,129.315,2,古仁屋アメダス,鹿児島県,大島郡瀬戸内町
88931,天城,ｱﾏｷﾞ,27.835,128.88,2,徳之島航空気象観測所,鹿児島県,大島郡天城町
88956,伊仙,ｲｾﾝ,27.677,128.973,44,伊仙アメダス,鹿児島県,大島郡伊仙町
88971,沖永良部,ｵｷﾉｴﾗﾌﾞ,27.432,128.705,27,沖永良部特別地域気象観測所,鹿児島県,大島郡和泊町
88986,与論島,ﾖﾛﾝｼﾞﾏ,27.043,128.402,14,与論航空気象観測所,鹿児島県,大島郡与論町
91011,伊是名,ｲｾﾞﾅ,26.948,127.94,14,伊是名アメダス,沖縄県,島尻郡伊是名村
91021,奥,ｵｸ,26.835,128.272,232,奥アメダス,沖縄県,国頭郡国頭村
91046,国頭,ｸﾆｶﾞﾐ,26.728,128.178,8,国頭アメダス,沖縄県,国頭郡国頭村
91066,本部,ﾓﾄﾌﾞ,26.685,127.898,25,本部アメダス,沖縄県,国頭郡本部町
91081,東,ﾋｶﾞｼ,26.632,128.153,24,東アメダス,沖縄県,国頭郡東村
91096,粟国,ｱｸﾞﾆ,26.592,127.238,14,粟国アメダス,沖縄県,島尻郡粟国村
91107,名護,ﾅｺﾞ,26.593,127.965,6,名護特別地域気象観測所,沖縄県,名護市
91121,読谷,ﾖﾐﾀﾝ,26.407,127.733,90,読谷アメダス,沖縄県,中頭郡読谷村
91141,北原,ｷﾀﾊﾗ,26.363,126.713,7,久米島航空気象観測所,沖縄県,島尻郡久米島町
91146,久米島,ｸﾒｼﾞﾏ,26.337,126.803,5,久米島特別地域気象観測所,沖縄県,島尻郡久米島町
91151,渡名喜,ﾄﾅｷ,26.373,127.142,7,渡名喜アメダス,沖縄県,島尻郡渡名喜村
91161,胡屋,ｺﾞﾔ,26.327,127.803,105,胡屋アメダス,沖縄県,沖縄市
91166,宮城島,ﾐﾔｷﾞｼﾞﾏ,26.363,127.972,100,宮城島アメダス,沖縄県,うるま市
91181,渡嘉敷,ﾄｶｼｷ,26.21,127.363,220,渡嘉敷アメダス,沖縄県,島尻郡渡嘉敷村
91197,那覇,ﾅﾊ,26.207,127.687,28,沖縄気象台,沖縄県,那覇市
91236,安次嶺,ｱｼﾐﾈ,26.193,127.638,3,那覇航空測候所,沖縄県,那覇市
91241,糸数,ｲﾄｶｽﾞ,26.153,127.765,186,糸数アメダス,沖縄県,南城市
92006,北大東,ｷﾀﾀﾞｲﾄｳ,25.943,131.327,22,北大東航空気象観測所,沖縄県,島尻郡北大東村
92011,南大東,ﾐﾅﾐﾀﾞｲﾄｳ,25.828,131.228,15,南大東島地方気象台,沖縄県,島尻郡南大東村
92012,旧東,ｷｭｳﾄｳ,25.847,131.263,48,南大東航空気象観測所,沖縄県,島尻郡南大東村
93012,下地島,ｼﾓｼﾞｼﾏ,24.827,125.143,8,下地島航空気象観測所,沖縄県,宮古島市
93041,宮古島,ﾐﾔｺｼﾞﾏ,24.793,125.278,39,宮古島地方気象台,沖縄県,宮古島市
93042,鏡原,ｶｶﾞﾐﾊﾗ,24.782,125.295,43,宮古航空気象観測所,沖縄県,宮古島市
93051,城辺,ｸﾞｽｸﾍﾞ,24.743,125.41,55,城辺アメダス,沖縄県,宮古島市
93062,仲筋,ﾅｶｽｼﾞ,24.653,124.675,10,多良間航空気象観測所,沖縄県,宮古郡多良間村
94001,伊原間,ｲﾊﾞﾙﾏ,24.507,124.28,11,伊原間アメダス,沖縄県,石垣市
94011,所野,ﾄｺﾛﾉ,24.467,122.978,15,与那国航空気象観測所,沖縄県,八重山郡与那国町
94017,与那国島,ﾖﾅｸﾞﾆｼﾞﾏ,24.467,123.01,30,与那国島特別地域気象観測所,沖縄県,八重山郡与那国町
94036,川平,ｶﾋﾞﾗ,24.467,124.14,7,川平アメダス,沖縄県,石垣市
94062,西表島,ｲﾘｵﾓﾃｼﾞﾏ,24.427,123.765,10,西表島特別地域気象観測所,沖縄県,八重山郡竹富町
94081,石垣島,ｲｼｶﾞｷｼﾞﾏ,24.337,124.163,6,石垣島地方気象台,沖縄県,石垣市
94086,盛山,ﾓﾘﾔﾏ,24.395,124.245,31,石垣航空気象観測所,沖縄県,石垣市
94101,大原,ｵｵﾊﾗ,24.265,123.872,33,大原アメダス,沖縄県,八重山郡竹富町
94116,波照間,ﾊﾃﾙﾏ,24.055,123.767,38,波照間アメダス,沖縄県,八重山郡竹富町
